[
	{
		"track_id": 1,
		"track_name": "[Retired] Lime Rock Park - 2008",
		"location": "Lakeville, Connecticut, USA",
		"latitude": 41.9282105,
		"longitude": -73.3839642,
		"track_config_length": 1.53,
		"corners_per_lap": 7,
		"category": "road",
		"track_type_text": "Road Course"
	},
	{
		"track_id": 2,
		"track_name": "[Retired] Virginia International Raceway",
		"location": "Alton, Virginia, USA",
		"latitude": 36.560008,
		"longitude": -79.2048,
		"track_config_length": 3.27,
		"corners_per_lap": 20,
		"category": "road",
		"track_type_text": "Road Course"
	},
	{
		"track_id": 3,
		"track_name": "[Retired] Virginia International Raceway",
		"location": "Alton, Virginia, USA",
		"latitude": 36.560008,
		"longitude": -79.2048,
		"track_config_length": 1.1,
		"corners_per_lap": 11,
		"category": "road",
		"track_type_text": "Road Course"
	},
	{
		"track_id": 4,
		"track_name": "[Retired] Virginia International Raceway",
		"location": "Alton, Virginia, USA",
		"latitude": 36.560008,
		"longitude": -79.2048,
		"track_config_length": 2.25,
		"corners_per_lap": 20,
		"category": "road",
		"track_type_text": "Road Course"
	},
	{
		"track_id": 5,
		"track_name": "[Retired] Virginia International Raceway",
		"location": "Alton, Virginia, USA",
		"latitude": 36.560008,
		"longitude": -79.2048,
		"track_config_length": 4.07,
		"corners_per_lap": 26,
		"category": "road",
		"track_type_text": "Road Course"
	},
	{
		"track_id": 6,
		"track_name": "[Retired] Virginia International Raceway",
		"location": "Alton, Virginia, USA",
		"latitude": 36.560008,
		"longitude": -79.2048,
		"track_config_length": 3.97,
		"corners_per_lap": 24,
		"category": "road",
		"track_type_text": "Road Course"
	},
	{
		"track_id": 7,
		"track_name": "[Retired] Virginia International Raceway",
		"location": "Alton, Virginia, USA",
		"latitude": 36.560008,
		"longitude": -79.2048,
		"track_config_length": 2.25,
		"corners_per_lap": 8,
		"category": "road",
		"track_type_text": "Road Course"
	},
	{
		"track_id": 8,
		"track_name": "Summit Point Raceway",
		"location": "Summit Point, West Virginia, USA",
		"latitude": 39.2415229,
		"longitude": -77.9778938,
		"track_config_length": 1.11,
		"corners_per_lap": 7,
		"category": "road",
		"track_type_text": "Road Course"
	},
	{
		"track_id": 9,
		"track_name": "Summit Point Raceway",
		"location": "Summit Point, West Virginia, USA",
		"latitude": 39.2415229,
		"longitude": -77.9778938,
		"track_config_length": 1.98,
		"corners_per_lap": 10,
		"category": "road",
		"track_type_text": "Road Course"
	},
	{
		"track_id": 11,
		"track_name": "Stafford Motor Speedway",
		"location": "Stafford Springs, Connecticut, USA",
		"latitude": 41.956733,
		"longitude": -72.322947,
		"track_config_length": 0.5,
		"corners_per_lap": 4,
		"category": "oval",
		"track_type_text": "Short Oval"
	},
	{
		"track_id": 12,
		"track_name": "Oxford Plains Speedway",
		"location": "Oxford, Maine, USA",
		"latitude": 44.1540543,
		"longitude": -70.4865637,
		"track_config_length": 0.375,
		"corners_per_lap": 4,
		"category": "oval",
		"track_type_text": "Short Oval"
	},
	{
		"track_id": 14,
		"track_name": "South Boston Speedway",
		"location": "South Boston, Virginia, USA",
		"latitude": 36.7092845,
		"longitude": -78.8712013,
		"track_config_length": 0.4,
		"corners_per_lap": 4,
		"category": "oval",
		"track_type_text": "Short Oval"
	},
	{
		"track_id": 15,
		"track_name": "Concord Speedway",
		"location": "Concord, North Carolina, USA",
		"latitude": 35.3089728,
		"longitude": -80.5236159,
		"track_config_length": 0.5,
		"corners_per_lap": 5,
		"category": "oval",
		"track_type_text": "Short Oval"
	},
	{
		"track_id": 16,
		"track_name": "USA International Speedway",
		"location": "Lakeland, Florida, USA",
		"latitude": 28.1515,
		"longitude": -81.892694,
		"track_config_length": 0.75,
		"corners_per_lap": 4,
		"category": "oval",
		"track_type_text": "Short Oval"
	},
	{
		"track_id": 17,
		"track_name": "Lanier National Speedway",
		"location": "Braselton, Georgia, USA",
		"latitude": 34.153424,
		"longitude": -83.8149922,
		"track_config_length": 0.375,
		"corners_per_lap": 4,
		"category": "oval",
		"track_type_text": "Short Oval"
	},
	{
		"track_id": 18,
		"track_name": "Road America",
		"location": "Elkhart Lake, Wisconsin, USA",
		"latitude": 43.79751,
		"longitude": -87.992157,
		"track_config_length": 4.048,
		"corners_per_lap": 14,
		"category": "road",
		"track_type_text": "Road Course"
	},
	{
		"track_id": 19,
		"track_name": "Irwindale Speedway",
		"location": "Irwindale, California, USA",
		"latitude": 34.1104491,
		"longitude": -117.9892554,
		"track_config_length": 0.33,
		"corners_per_lap": 4,
		"category": "oval",
		"track_type_text": "Short Oval"
	},
	{
		"track_id": 20,
		"track_name": "Homestead Miami Speedway",
		"location": "Homestead, Florida, USA",
		"latitude": 25.4517775,
		"longitude": -80.4110895,
		"track_config_length": 1.5,
		"corners_per_lap": 4,
		"category": "oval",
		"track_type_text": "Intermediate Oval"
	},
	{
		"track_id": 21,
		"track_name": "Homestead Miami Speedway",
		"location": "Homestead, Florida, USA",
		"latitude": 25.4517775,
		"longitude": -80.4110895,
		"track_config_length": 2.21,
		"corners_per_lap": 9,
		"category": "road",
		"track_type_text": "Road Course"
	},
	{
		"track_id": 22,
		"track_name": "Homestead Miami Speedway",
		"location": "Homestead, Florida, USA",
		"latitude": 25.4517775,
		"longitude": -80.4110895,
		"track_config_length": 2.3,
		"corners_per_lap": 10,
		"category": "road",
		"track_type_text": "Road Course"
	},
	{
		"track_id": 23,
		"track_name": "Irwindale Speedway",
		"location": "Irwindale, California, USA",
		"latitude": 34.1104491,
		"longitude": -117.9892554,
		"track_config_length": 0.5,
		"corners_per_lap": 4,
		"category": "oval",
		"track_type_text": "Short Oval"
	},
	{
		"track_id": 24,
		"track_name": "Summit Point Raceway",
		"location": "Summit Point, West Virginia, USA",
		"latitude": 39.2415229,
		"longitude": -77.9778938,
		"track_config_length": 1.46,
		"corners_per_lap": 7,
		"category": "road",
		"track_type_text": "Road Course"
	},
	{
		"track_id": 26,
		"track_name": "Daytona International Speedway",
		"location": "Daytona Beach, Florida, USA",
		"latitude": 29.185169,
		"longitude": -81.072722,
		"track_config_length": 3.56,
		"corners_per_lap": 11,
		"category": "road",
		"track_type_text": "Road Course"
	},
	{
		"track_id": 27,
		"track_name": "Daytona International Speedway",
		"location": "Daytona Beach, Florida, USA",
		"latitude": 29.185169,
		"longitude": -81.072722,
		"track_config_length": 2.5,
		"corners_per_lap": 4,
		"category": "oval",
		"track_type_text": "Superspeedway"
	},
	{
		"track_id": 28,
		"track_name": "Daytona International Speedway",
		"location": "Daytona Beach, Florida, USA",
		"latitude": 29.185169,
		"longitude": -81.072722,
		"track_config_length": 2.95,
		"corners_per_lap": 12,
		"category": "road",
		"track_type_text": "Road Course"
	},
	{
		"track_id": 29,
		"track_name": "Daytona International Speedway",
		"location": "Daytona Beach, Florida, USA",
		"latitude": 29.185169,
		"longitude": -81.072722,
		"track_config_length": 1.04,
		"corners_per_lap": 5,
		"category": "road",
		"track_type_text": "Road Course"
	},
	{
		"track_id": 30,
		"track_name": "Irwindale Speedway",
		"location": "Irwindale, California, USA",
		"latitude": 34.1104491,
		"longitude": -117.9892554,
		"track_config_length": 0.4,
		"corners_per_lap": 4,
		"category": "oval",
		"track_type_text": "Short Oval"
	},
	{
		"track_id": 31,
		"track_name": "Richmond Raceway",
		"location": "Richmond, Virginia, USA",
		"latitude": 37.592392,
		"longitude": -77.421653,
		"track_config_length": 0.75,
		"corners_per_lap": 4,
		"category": "oval",
		"track_type_text": "Short Oval"
	},
	{
		"track_id": 33,
		"track_name": "Martinsville Speedway",
		"location": "Ridgeway, Virginia, USA",
		"latitude": 36.6340671,
		"longitude": -79.8538533,
		"track_config_length": 0.526,
		"corners_per_lap": 4,
		"category": "oval",
		"track_type_text": "Short Oval"
	},
	{
		"track_id": 34,
		"track_name": "[Retired] Lime Rock Park - 2008",
		"location": "Lakeville, Connecticut, USA",
		"latitude": 41.9282105,
		"longitude": -73.3839642,
		"track_config_length": 1.54,
		"corners_per_lap": 8,
		"category": "road",
		"track_type_text": "Road Course"
	},
	{
		"track_id": 37,
		"track_name": "[Legacy] Charlotte Motor Speedway - 2008",
		"location": "Concord, North Carolina, USA",
		"latitude": 35.3511641,
		"longitude": -80.6912655,
		"track_config_length": 2.25,
		"corners_per_lap": 12,
		"category": "road",
		"track_type_text": "Road Course"
	},
	{
		"track_id": 38,
		"track_name": "[Legacy] Charlotte Motor Speedway - 2008",
		"location": "Concord, North Carolina, USA",
		"latitude": 35.3511641,
		"longitude": -80.6912655,
		"track_config_length": 0.72,
		"corners_per_lap": 12,
		"category": "road",
		"track_type_text": "Road Course"
	},
	{
		"track_id": 39,
		"track_name": "[Legacy] Charlotte Motor Speedway - 2008",
		"location": "Concord, North Carolina, USA",
		"latitude": 35.3511641,
		"longitude": -80.6912655,
		"track_config_length": 0.25,
		"corners_per_lap": 4,
		"category": "oval",
		"track_type_text": "Short Oval"
	},
	{
		"track_id": 40,
		"track_name": "[Legacy] Charlotte Motor Speedway - 2008",
		"location": "Concord, North Carolina, USA",
		"latitude": 35.3511641,
		"longitude": -80.6912655,
		"track_config_length": 1.5,
		"corners_per_lap": 4,
		"category": "oval",
		"track_type_text": "Intermediate Oval"
	},
	{
		"track_id": 41,
		"track_name": "[Legacy] Silverstone Circuit - 2008",
		"location": "Towcester, Northamptonshire, England",
		"latitude": 52.0733006,
		"longitude": -1.0168574,
		"track_config_length": 3.194,
		"corners_per_lap": 17,
		"category": "road",
		"track_type_text": "Road Course"
	},
	{
		"track_id": 42,
		"track_name": "[Legacy] Silverstone Circuit - 2008",
		"location": "Towcester, Northamptonshire, England",
		"latitude": 52.0733006,
		"longitude": -1.0168574,
		"track_config_length": 3.124,
		"corners_per_lap": 10,
		"category": "road",
		"track_type_text": "Road Course"
	},
	{
		"track_id": 43,
		"track_name": "[Legacy] Silverstone Circuit - 2008",
		"location": "Towcester, Northamptonshire, England",
		"latitude": 52.0733006,
		"longitude": -1.0168574,
		"track_config_length": 2.249,
		"corners_per_lap": 10,
		"category": "road",
		"track_type_text": "Road Course"
	},
	{
		"track_id": 44,
		"track_name": "[Legacy] Silverstone Circuit - 2008",
		"location": "Towcester, Northamptonshire, England",
		"latitude": 52.0733006,
		"longitude": -1.0168574,
		"track_config_length": 1.639,
		"corners_per_lap": 6,
		"category": "road",
		"track_type_text": "Road Course"
	},
	{
		"track_id": 45,
		"track_name": "[Legacy] Silverstone Circuit - 2008",
		"location": "Towcester, Northamptonshire, England",
		"latitude": 52.0733006,
		"longitude": -1.0168574,
		"track_config_length": 1.969,
		"corners_per_lap": 5,
		"category": "road",
		"track_type_text": "Road Course"
	},
	{
		"track_id": 46,
		"track_name": "Barber Motorsports Park",
		"location": "Leeds, Alabama, USA",
		"latitude": 33.5318079,
		"longitude": -86.6211086,
		"track_config_length": 2.38,
		"corners_per_lap": 16,
		"category": "road",
		"track_type_text": "Road Course"
	},
	{
		"track_id": 47,
		"track_name": "WeatherTech Raceway at Laguna Seca",
		"location": "Monterey, California, USA",
		"latitude": 36.5842902,
		"longitude": -121.7556574,
		"track_config_length": 2.238,
		"corners_per_lap": 11,
		"category": "road",
		"track_type_text": "Road Course"
	},
	{
		"track_id": 48,
		"track_name": "Sonoma Raceway",
		"location": "Sonoma, California, USA",
		"latitude": 38.1608659,
		"longitude": -122.4568882,
		"track_config_length": 1.99,
		"corners_per_lap": 10,
		"category": "road",
		"track_type_text": "Road Course"
	},
	{
		"track_id": 49,
		"track_name": "Sonoma Raceway",
		"location": "Sonoma, California, USA",
		"latitude": 38.1608659,
		"longitude": -122.4568882,
		"track_config_length": 2.22,
		"corners_per_lap": 12,
		"category": "road",
		"track_type_text": "Road Course"
	},
	{
		"track_id": 50,
		"track_name": "Road America",
		"location": "Elkhart Lake, Wisconsin, USA",
		"latitude": 43.79751,
		"longitude": -87.992157,
		"track_config_length": 4.048,
		"corners_per_lap": 14,
		"category": "road",
		"track_type_text": "Road Course"
	},
	{
		"track_id": 51,
		"track_name": "EchoPark Speedway (Atlanta)",
		"location": "Hampton, Georgia, USA",
		"latitude": 33.3859794,
		"longitude": -84.3184714,
		"track_config_length": 2.55,
		"corners_per_lap": 9,
		"category": "road",
		"track_type_text": "Road Course"
	},
	{
		"track_id": 52,
		"track_name": "EchoPark Speedway (Atlanta)",
		"location": "Hampton, Georgia, USA",
		"latitude": 33.3859794,
		"longitude": -84.3184714,
		"track_config_length": 0.25,
		"corners_per_lap": 4,
		"category": "oval",
		"track_type_text": "Short Oval"
	},
	{
		"track_id": 53,
		"track_name": "EchoPark Speedway (Atlanta)",
		"location": "Hampton, Georgia, USA",
		"latitude": 33.3859794,
		"longitude": -84.3184714,
		"track_config_length": 1.54,
		"corners_per_lap": 4,
		"category": "oval",
		"track_type_text": "Intermediate Oval"
	},
	{
		"track_id": 94,
		"track_name": "The Milwaukee Mile",
		"location": "West Allis, Wisconsin, USA",
		"latitude": 43.0204523,
		"longitude": -88.0150972,
		"track_config_length": 1,
		"corners_per_lap": 4,
		"category": "oval",
		"track_type_text": "Mile Oval"
	},
	{
		"track_id": 95,
		"track_name": "Sebring International Raceway",
		"location": "Sebring, Florida, USA",
		"latitude": 27.4550124,
		"longitude": -81.3518741,
		"track_config_length": 3.74,
		"corners_per_lap": 17,
		"category": "road",
		"track_type_text": "Road Course"
	},
	{
		"track_id": 96,
		"track_name": "Sebring International Raceway",
		"location": "Sebring, Florida, USA",
		"latitude": 27.4550124,
		"longitude": -81.3518741,
		"track_config_length": 1.97,
		"corners_per_lap": 9,
		"category": "road",
		"track_type_text": "Road Course"
	},
	{
		"track_id": 97,
		"track_name": "Sebring International Raceway",
		"location": "Sebring, Florida, USA",
		"latitude": 27.4550124,
		"longitude": -81.3518741,
		"track_config_length": 1.75,
		"corners_per_lap": 11,
		"category": "road",
		"track_type_text": "Road Course"
	},
	{
		"track_id": 98,
		"track_name": "Sonoma Raceway",
		"location": "Sonoma, California, USA",
		"latitude": 38.1608659,
		"longitude": -122.4568882,
		"track_config_length": 2.53,
		"corners_per_lap": 12,
		"category": "road",
		"track_type_text": "Road Course"
	},
	{
		"track_id": 99,
		"track_name": "Barber Motorsports Park",
		"location": "Leeds, Alabama, USA",
		"latitude": 33.5318079,
		"longitude": -86.6211086,
		"track_config_length": 1.45,
		"corners_per_lap": 11,
		"category": "road",
		"track_type_text": "Road Course"
	},
	{
		"track_id": 100,
		"track_name": "Barber Motorsports Park",
		"location": "Leeds, Alabama, USA",
		"latitude": 33.5318079,
		"longitude": -86.6211086,
		"track_config_length": 0.75,
		"corners_per_lap": 5,
		"category": "road",
		"track_type_text": "Road Course"
	},
	{
		"track_id": 101,
		"track_name": "Bristol Motor Speedway",
		"location": "Bristol, Tennessee, USA",
		"latitude": 36.515694,
		"longitude": -82.2591607,
		"track_config_length": 0.533,
		"corners_per_lap": 4,
		"category": "oval",
		"track_type_text": "Short Oval"
	},
	{
		"track_id": 102,
		"track_name": "Sonoma Raceway",
		"location": "Sonoma, California, USA",
		"latitude": 38.1608659,
		"longitude": -122.4568882,
		"track_config_length": 2.22,
		"corners_per_lap": 12,
		"category": "road",
		"track_type_text": "Road Course"
	},
	{
		"track_id": 103,
		"track_name": "Las Vegas Motor Speedway",
		"location": "Las Vegas, Nevada, USA",
		"latitude": 36.2722847,
		"longitude": -115.0124701,
		"track_config_length": 1.5,
		"corners_per_lap": 4,
		"category": "oval",
		"track_type_text": "Intermediate Oval"
	},
	{
		"track_id": 104,
		"track_name": "[Legacy] Phoenix Raceway - 2008",
		"location": "Avondale, Arizona, USA",
		"latitude": 33.37487,
		"longitude": -112.313415,
		"track_config_length": 1,
		"corners_per_lap": 4,
		"category": "oval",
		"track_type_text": "Mile Oval"
	},
	{
		"track_id": 105,
		"track_name": "[Legacy] Phoenix Raceway - 2008",
		"location": "Avondale, Arizona, USA",
		"latitude": 33.37487,
		"longitude": -112.313415,
		"track_config_length": 1.51,
		"corners_per_lap": 13,
		"category": "road",
		"track_type_text": "Road Course"
	},
	{
		"track_id": 106,
		"track_name": "[Retired] Watkins Glen International",
		"location": "Watkins Glen, New York, USA",
		"latitude": 42.3382811,
		"longitude": -76.9285517,
		"track_config_length": 2.45,
		"corners_per_lap": 8,
		"category": "road",
		"track_type_text": "Road Course"
	},
	{
		"track_id": 107,
		"track_name": "[Retired] Watkins Glen International",
		"location": "Watkins Glen, New York, USA",
		"latitude": 42.3382811,
		"longitude": -76.9285517,
		"track_config_length": 3.4,
		"corners_per_lap": 12,
		"category": "road",
		"track_type_text": "Road Course"
	},
	{
		"track_id": 108,
		"track_name": "[Retired] Watkins Glen International",
		"location": "Watkins Glen, New York, USA",
		"latitude": 42.3382811,
		"longitude": -76.9285517,
		"track_config_length": 3.4,
		"corners_per_lap": 11,
		"category": "road",
		"track_type_text": "Road Course"
	},
	{
		"track_id": 109,
		"track_name": "[Retired] Watkins Glen International",
		"location": "Watkins Glen, New York, USA",
		"latitude": 42.3382811,
		"longitude": -76.9285517,
		"track_config_length": 2.45,
		"corners_per_lap": 7,
		"category": "road",
		"track_type_text": "Road Course"
	},
	{
		"track_id": 110,
		"track_name": "Las Vegas Motor Speedway",
		"location": "Las Vegas, Nevada, USA",
		"latitude": 36.2722847,
		"longitude": -115.0124701,
		"track_config_length": 0.25,
		"corners_per_lap": 4,
		"category": "oval",
		"track_type_text": "Short Oval"
	},
	{
		"track_id": 111,
		"track_name": "Las Vegas Motor Speedway",
		"location": "Las Vegas, Nevada, USA",
		"latitude": 36.2722847,
		"longitude": -115.0124701,
		"track_config_length": 1.07,
		"corners_per_lap": 10,
		"category": "road",
		"track_type_text": "Road Course"
	},
	{
		"track_id": 112,
		"track_name": "Las Vegas Motor Speedway",
		"location": "Las Vegas, Nevada, USA",
		"latitude": 36.2722847,
		"longitude": -115.0124701,
		"track_config_length": 0.75,
		"corners_per_lap": 6,
		"category": "road",
		"track_type_text": "Road Course"
	},
	{
		"track_id": 113,
		"track_name": "Las Vegas Motor Speedway",
		"location": "Las Vegas, Nevada, USA",
		"latitude": 36.2722847,
		"longitude": -115.0124701,
		"track_config_length": 0.34,
		"corners_per_lap": 4,
		"category": "oval",
		"track_type_text": "Road Course"
	},
	{
		"track_id": 114,
		"track_name": "Las Vegas Motor Speedway",
		"location": "Las Vegas, Nevada, USA",
		"latitude": 36.2722847,
		"longitude": -115.0124701,
		"track_config_length": 2.2,
		"corners_per_lap": 11,
		"category": "road",
		"track_type_text": "Road Course"
	},
	{
		"track_id": 115,
		"track_name": "Darlington Raceway",
		"location": "Darlington, South Carolina, USA",
		"latitude": 34.2973206,
		"longitude": -79.9073456,
		"track_config_length": 1.366,
		"corners_per_lap": 4,
		"category": "oval",
		"track_type_text": "Intermediate Oval"
	},
	{
		"track_id": 116,
		"track_name": "Talladega Superspeedway",
		"location": "Talladega, Alabama, USA",
		"latitude": 33.5669742,
		"longitude": -86.0683193,
		"track_config_length": 2.66,
		"corners_per_lap": 4,
		"category": "oval",
		"track_type_text": "Superspeedway"
	},
	{
		"track_id": 117,
		"track_name": "[Legacy] Texas Motor Speedway - 2009",
		"location": "Fort Worth, Texas, USA",
		"latitude": 33.0373257,
		"longitude": -97.2843123,
		"track_config_length": 0.87,
		"corners_per_lap": 8,
		"category": "road",
		"track_type_text": "Road Course"
	},
	{
		"track_id": 118,
		"track_name": "[Legacy] Texas Motor Speedway - 2009",
		"location": "Fort Worth, Texas, USA",
		"latitude": 33.0373257,
		"longitude": -97.2843123,
		"track_config_length": 0.41,
		"corners_per_lap": 5,
		"category": "road",
		"track_type_text": "Road Course"
	},
	{
		"track_id": 119,
		"track_name": "[Legacy] Texas Motor Speedway - 2009",
		"location": "Fort Worth, Texas, USA",
		"latitude": 33.0373257,
		"longitude": -97.2843123,
		"track_config_length": 0.48,
		"corners_per_lap": 7,
		"category": "road",
		"track_type_text": "Road Course"
	},
	{
		"track_id": 120,
		"track_name": "[Legacy] Texas Motor Speedway - 2009",
		"location": "Fort Worth, Texas, USA",
		"latitude": 33.0373257,
		"longitude": -97.2843123,
		"track_config_length": 0.24,
		"corners_per_lap": 2,
		"category": "oval",
		"track_type_text": "Short Oval"
	},
	{
		"track_id": 121,
		"track_name": "[Legacy] Texas Motor Speedway - 2009",
		"location": "Fort Worth, Texas, USA",
		"latitude": 33.0373257,
		"longitude": -97.2843123,
		"track_config_length": 1.5,
		"corners_per_lap": 4,
		"category": "oval",
		"track_type_text": "Intermediate Oval"
	},
	{
		"track_id": 122,
		"track_name": "[Legacy] Texas Motor Speedway - 2009",
		"location": "Fort Worth, Texas, USA",
		"latitude": 33.0373257,
		"longitude": -97.2843123,
		"track_config_length": 2.28,
		"corners_per_lap": 10,
		"category": "road",
		"track_type_text": "Road Course"
	},
	{
		"track_id": 123,
		"track_name": "Chicagoland Speedway",
		"location": "Joliet, Illinois, USA",
		"latitude": 41.4749519,
		"longitude": -88.0594943,
		"track_config_length": 1.5,
		"corners_per_lap": 4,
		"category": "oval",
		"track_type_text": "Intermediate Oval"
	},
	{
		"track_id": 124,
		"track_name": "[Legacy] Michigan International Speedway - 2009",
		"location": "Brooklyn, Michigan, USA",
		"latitude": 34.15219,
		"longitude": -83.81511,
		"track_config_length": 2,
		"corners_per_lap": 4,
		"category": "oval",
		"track_type_text": "Long Oval"
	},
	{
		"track_id": 126,
		"track_name": "Road Atlanta",
		"location": "Braselton, Georgia, USA",
		"latitude": 34.15219,
		"longitude": -83.81511,
		"track_config_length": 1.81,
		"corners_per_lap": 14,
		"category": "road",
		"track_type_text": "Road Course"
	},
	{
		"track_id": 127,
		"track_name": "Road Atlanta",
		"location": "Braselton, Georgia, USA",
		"latitude": 34.15219,
		"longitude": -83.81511,
		"track_config_length": 2.54,
		"corners_per_lap": 12,
		"category": "road",
		"track_type_text": "Road Course"
	},
	{
		"track_id": 128,
		"track_name": "Road Atlanta",
		"location": "Braselton, Georgia, USA",
		"latitude": 34.15219,
		"longitude": -83.81511,
		"track_config_length": 1.76,
		"corners_per_lap": 10,
		"category": "road",
		"track_type_text": "Road Course"
	},
	{
		"track_id": 129,
		"track_name": "New Hampshire Motor Speedway",
		"location": "Loudon, New Hampshire, USA",
		"latitude": 43.36268,
		"longitude": -71.462767,
		"track_config_length": 1.53,
		"corners_per_lap": 14,
		"category": "road",
		"track_type_text": "Road Course"
	},
	{
		"track_id": 130,
		"track_name": "New Hampshire Motor Speedway",
		"location": "Loudon, New Hampshire, USA",
		"latitude": 43.36268,
		"longitude": -71.462767,
		"track_config_length": 1.59,
		"corners_per_lap": 13,
		"category": "road",
		"track_type_text": "Road Course"
	},
	{
		"track_id": 131,
		"track_name": "New Hampshire Motor Speedway",
		"location": "Loudon, New Hampshire, USA",
		"latitude": 43.36268,
		"longitude": -71.462767,
		"track_config_length": 1,
		"corners_per_lap": 4,
		"category": "oval",
		"track_type_text": "Mile Oval"
	},
	{
		"track_id": 132,
		"track_name": "New Hampshire Motor Speedway",
		"location": "Loudon, New Hampshire, USA",
		"latitude": 43.36268,
		"longitude": -71.462767,
		"track_config_length": 1.55,
		"corners_per_lap": 13,
		"category": "road",
		"track_type_text": "Road Course"
	},
	{
		"track_id": 133,
		"track_name": "Indianapolis Motor Speedway",
		"location": "Speedway, Indiana, USA",
		"latitude": 39.7953542,
		"longitude": -86.2374946,
		"track_config_length": 2.5,
		"corners_per_lap": 4,
		"category": "oval",
		"track_type_text": "Long Oval"
	},
	{
		"track_id": 134,
		"track_name": "Indianapolis Motor Speedway",
		"location": "Speedway, Indiana, USA",
		"latitude": 39.7953542,
		"longitude": -86.2374946,
		"track_config_length": 2.605,
		"corners_per_lap": 13,
		"category": "road",
		"track_type_text": "Road Course"
	},
	{
		"track_id": 135,
		"track_name": "Indianapolis Motor Speedway",
		"location": "Speedway, Indiana, USA",
		"latitude": 39.7953542,
		"longitude": -86.2374946,
		"track_config_length": 2.621,
		"corners_per_lap": 16,
		"category": "road",
		"track_type_text": "Road Course"
	},
	{
		"track_id": 136,
		"track_name": "[Legacy] Pocono Raceway - 2009",
		"location": "Long Pond, Pennsylvania, USA",
		"latitude": 41.0543442,
		"longitude": -75.513473,
		"track_config_length": 2.5,
		"corners_per_lap": 3,
		"category": "oval",
		"track_type_text": "Long Oval"
	},
	{
		"track_id": 137,
		"track_name": "[Legacy] Pocono Raceway - 2009",
		"location": "Long Pond, Pennsylvania, USA",
		"latitude": 41.0543442,
		"longitude": -75.513473,
		"track_config_length": 1.4,
		"corners_per_lap": 13,
		"category": "road",
		"track_type_text": "Road Course"
	},
	{
		"track_id": 138,
		"track_name": "[Legacy] Pocono Raceway - 2009",
		"location": "Long Pond, Pennsylvania, USA",
		"latitude": 41.0543442,
		"longitude": -75.513473,
		"track_config_length": 1,
		"corners_per_lap": 10,
		"category": "road",
		"track_type_text": "Road Course"
	},
	{
		"track_id": 139,
		"track_name": "[Legacy] Pocono Raceway - 2009",
		"location": "Long Pond, Pennsylvania, USA",
		"latitude": 41.0543442,
		"longitude": -75.513473,
		"track_config_length": 1.5,
		"corners_per_lap": 7,
		"category": "road",
		"track_type_text": "Road Course"
	},
	{
		"track_id": 140,
		"track_name": "[Legacy] Pocono Raceway - 2009",
		"location": "Long Pond, Pennsylvania, USA",
		"latitude": 41.0543442,
		"longitude": -75.513473,
		"track_config_length": 2.5,
		"corners_per_lap": 7,
		"category": "road",
		"track_type_text": "Road Course"
	},
	{
		"track_id": 141,
		"track_name": "[Retired] Virginia International Raceway",
		"location": "Alton, Virginia, USA",
		"latitude": 36.560008,
		"longitude": -79.2048,
		"track_config_length": 1.1,
		"corners_per_lap": 11,
		"category": "road",
		"track_type_text": "Road Course"
	},
	{
		"track_id": 142,
		"track_name": "Summit Point Raceway",
		"location": "Summit Point, West Virginia, USA",
		"latitude": 39.2415229,
		"longitude": -77.9778938,
		"track_config_length": 1.11,
		"corners_per_lap": 7,
		"category": "road",
		"track_type_text": "Road Course"
	},
	{
		"track_id": 143,
		"track_name": "Centripetal Circuit",
		"location": "Parts Unknown",
		"latitude": 42.596953,
		"longitude": -83.684817,
		"track_config_length": 0.123,
		"corners_per_lap": 1,
		"category": "oval",
		"track_type_text": "Mile Oval"
	},
	{
		"track_id": 144,
		"track_name": "Canadian Tire Motorsports Park",
		"location": "Bowmanville, Ontario, Canada",
		"latitude": 44.0541878,
		"longitude": -78.677559,
		"track_config_length": 2.459,
		"corners_per_lap": 10,
		"category": "road",
		"track_type_text": "Road Course"
	},
	{
		"track_id": 145,
		"track_name": "Brands Hatch Circuit",
		"location": "Fawkham, Kent, England",
		"latitude": 51.3581048,
		"longitude": 0.2536338,
		"track_config_length": 2.301,
		"corners_per_lap": 9,
		"category": "road",
		"track_type_text": "Road Course"
	},
	{
		"track_id": 146,
		"track_name": "Brands Hatch Circuit",
		"location": "Fawkham, Kent, England",
		"latitude": 51.3581048,
		"longitude": 0.2536338,
		"track_config_length": 1.198,
		"corners_per_lap": 6,
		"category": "road",
		"track_type_text": "Road Course"
	},
	{
		"track_id": 147,
		"track_name": "Circuit Park Zandvoort",
		"location": "Zandvoort, North Holland, Netherlands",
		"latitude": 52.3877081,
		"longitude": 4.5420188,
		"track_config_length": 2.68,
		"corners_per_lap": 14,
		"category": "road",
		"track_type_text": "Road Course"
	},
	{
		"track_id": 148,
		"track_name": "Circuit Park Zandvoort",
		"location": "Zandvoort, North Holland, Netherlands",
		"latitude": 52.3877081,
		"longitude": 4.5420188,
		"track_config_length": 1.6,
		"corners_per_lap": 7,
		"category": "road",
		"track_type_text": "Road Course"
	},
	{
		"track_id": 149,
		"track_name": "Circuit Park Zandvoort",
		"location": "Zandvoort, North Holland, Netherlands",
		"latitude": 52.3877081,
		"longitude": 4.5420188,
		"track_config_length": 2.671,
		"corners_per_lap": 13,
		"category": "road",
		"track_type_text": "Road Course"
	},
	{
		"track_id": 150,
		"track_name": "Circuit Park Zandvoort",
		"location": "Zandvoort, North Holland, Netherlands",
		"latitude": 52.3877081,
		"longitude": 4.5420188,
		"track_config_length": 1.8,
		"corners_per_lap": 8,
		"category": "road",
		"track_type_text": "Road Course"
	},
	{
		"track_id": 151,
		"track_name": "Circuit Park Zandvoort",
		"location": "Zandvoort, North Holland, Netherlands",
		"latitude": 52.3877081,
		"longitude": 4.5420188,
		"track_config_length": 0.9,
		"corners_per_lap": 6,
		"category": "road",
		"track_type_text": "Road Course"
	},
	{
		"track_id": 152,
		"track_name": "Phillip Island Circuit",
		"location": "Phillip Island, Victoria, Australia",
		"latitude": -38.5011396,
		"longitude": 145.2355528,
		"track_config_length": 2.762,
		"corners_per_lap": 12,
		"category": "road",
		"track_type_text": "Road Course"
	},
	{
		"track_id": 153,
		"track_name": "Mid-Ohio Sports Car Course",
		"location": "Lexington, Ohio, USA",
		"latitude": 40.6906568,
		"longitude": -82.6397807,
		"track_config_length": 2.25,
		"corners_per_lap": 13,
		"category": "road",
		"track_type_text": "Road Course"
	},
	{
		"track_id": 154,
		"track_name": "Mid-Ohio Sports Car Course",
		"location": "Lexington, Ohio, USA",
		"latitude": 40.6906568,
		"longitude": -82.6397807,
		"track_config_length": 2.4,
		"corners_per_lap": 15,
		"category": "road",
		"track_type_text": "Road Course"
	},
	{
		"track_id": 155,
		"track_name": "Mid-Ohio Sports Car Course",
		"location": "Lexington, Ohio, USA",
		"latitude": 40.6906568,
		"longitude": -82.6397807,
		"track_config_length": 2,
		"corners_per_lap": 13,
		"category": "road",
		"track_type_text": "Road Course"
	},
	{
		"track_id": 156,
		"track_name": "Mid-Ohio Sports Car Course",
		"location": "Lexington, Ohio, USA",
		"latitude": 40.6906568,
		"longitude": -82.6397807,
		"track_config_length": 0.5,
		"corners_per_lap": 2,
		"category": "oval",
		"track_type_text": "Road Course"
	},
	{
		"track_id": 157,
		"track_name": "Mid-Ohio Sports Car Course",
		"location": "Lexington, Ohio, USA",
		"latitude": 40.6906568,
		"longitude": -82.6397807,
		"track_config_length": 0.5,
		"corners_per_lap": 4,
		"category": "oval",
		"track_type_text": "Road Course"
	},
	{
		"track_id": 158,
		"track_name": "WeatherTech Raceway at Laguna Seca",
		"location": "Monterey, California, USA",
		"latitude": 36.5842902,
		"longitude": -121.7556574,
		"track_config_length": 2.238,
		"corners_per_lap": 11,
		"category": "road",
		"track_type_text": "Road Course"
	},
	{
		"track_id": 159,
		"track_name": "Summit Point Raceway",
		"location": "Summit Point, West Virginia, USA",
		"latitude": 39.2415229,
		"longitude": -77.9778938,
		"track_config_length": 1.98,
		"corners_per_lap": 10,
		"category": "road",
		"track_type_text": "Road Course"
	},
	{
		"track_id": 160,
		"track_name": "[Retired] Lime Rock Park - 2008",
		"location": "Lakeville, Connecticut, USA",
		"latitude": 41.9282105,
		"longitude": -73.3839642,
		"track_config_length": 1.53,
		"corners_per_lap": 7,
		"category": "road",
		"track_type_text": "Road Course"
	},
	{
		"track_id": 161,
		"track_name": "Thompson Speedway Motorsports Park",
		"location": "Thompson, Connecticut, USA",
		"latitude": 41.981931,
		"longitude": -71.825473,
		"track_config_length": 0.625,
		"corners_per_lap": 4,
		"category": "oval",
		"track_type_text": "Short Oval"
	},
	{
		"track_id": 162,
		"track_name": "Dover Motor Speedway",
		"location": "Dover, Delaware, USA",
		"latitude": 39.1899138,
		"longitude": -75.5328525,
		"track_config_length": 1,
		"corners_per_lap": 4,
		"category": "oval",
		"track_type_text": "Mile Oval"
	},
	{
		"track_id": 163,
		"track_name": "Circuit de Spa-Francorchamps",
		"location": "Francorchamps, Liège, Belgium",
		"latitude": 50.4369118,
		"longitude": 5.969856,
		"track_config_length": 4.35,
		"corners_per_lap": 21,
		"category": "road",
		"track_type_text": "Road Course"
	},
	{
		"track_id": 164,
		"track_name": "Circuit de Spa-Francorchamps",
		"location": "Francorchamps, Liège, Belgium",
		"latitude": 50.4369118,
		"longitude": 5.969856,
		"track_config_length": 4.35,
		"corners_per_lap": 21,
		"category": "road",
		"track_type_text": "Road Course"
	},
	{
		"track_id": 165,
		"track_name": "Circuit de Spa-Francorchamps",
		"location": "Francorchamps, Liège, Belgium",
		"latitude": 50.4369118,
		"longitude": 5.969856,
		"track_config_length": 4.35,
		"corners_per_lap": 21,
		"category": "road",
		"track_type_text": "Road Course"
	},
	{
		"track_id": 166,
		"track_name": "Okayama International Circuit",
		"location": "Mimasaka, Okayama Prefecture, Japan",
		"latitude": 34.9125856,
		"longitude": 134.2160527,
		"track_config_length": 2.314,
		"corners_per_lap": 11,
		"category": "road",
		"track_type_text": "Road Course"
	},
	{
		"track_id": 167,
		"track_name": "Okayama International Circuit",
		"location": "Mimasaka, Okayama Prefecture, Japan",
		"latitude": 34.9125856,
		"longitude": 134.2160527,
		"track_config_length": 1.3,
		"corners_per_lap": 7,
		"category": "road",
		"track_type_text": "Road Course"
	},
	{
		"track_id": 168,
		"track_name": "Suzuka International Racing Course",
		"location": "Suzuka, Mie Prefecture, Japan",
		"latitude": 34.8455935,
		"longitude": 136.5367582,
		"track_config_length": 3.609,
		"corners_per_lap": 17,
		"category": "road",
		"track_type_text": "Road Course"
	},
	{
		"track_id": 169,
		"track_name": "Iowa Speedway - Oval - 2011",
		"location": "Newton, Iowa, USA",
		"latitude": 41.674667,
		"longitude": -93.015162,
		"track_config_length": 0.857,
		"corners_per_lap": 4,
		"category": "oval",
		"track_type_text": "Short Oval"
	},
	{
		"track_id": 170,
		"track_name": "Iowa Speedway",
		"location": "Newton, Iowa, USA",
		"latitude": 41.674667,
		"longitude": -93.015162,
		"track_config_length": 1.3,
		"corners_per_lap": 8,
		"category": "road",
		"track_type_text": "Road Course"
	},
	{
		"track_id": 171,
		"track_name": "Iowa Speedway",
		"location": "Newton, Iowa, USA",
		"latitude": 41.674667,
		"longitude": -93.015162,
		"track_config_length": 0.2,
		"corners_per_lap": 4,
		"category": "oval",
		"track_type_text": "Short Oval"
	},
	{
		"track_id": 172,
		"track_name": "Iowa Speedway",
		"location": "Newton, Iowa, USA",
		"latitude": 41.674667,
		"longitude": -93.015162,
		"track_config_length": 0.25,
		"corners_per_lap": 4,
		"category": "oval",
		"track_type_text": "Short Oval"
	},
	{
		"track_id": 173,
		"track_name": "Suzuka International Racing Course",
		"location": "Suzuka, Mie Prefecture, Japan",
		"latitude": 34.8455935,
		"longitude": 136.5367582,
		"track_config_length": 3.617,
		"corners_per_lap": 19,
		"category": "road",
		"track_type_text": "Road Course"
	},
	{
		"track_id": 174,
		"track_name": "Suzuka International Racing Course",
		"location": "Suzuka, Mie Prefecture, Japan",
		"latitude": 34.8455935,
		"longitude": 136.5367582,
		"track_config_length": 1.394,
		"corners_per_lap": 7,
		"category": "road",
		"track_type_text": "Road Course"
	},
	{
		"track_id": 175,
		"track_name": "Suzuka International Racing Course",
		"location": "Suzuka, Mie Prefecture, Japan",
		"latitude": 34.8455935,
		"longitude": 136.5367582,
		"track_config_length": 2.154,
		"corners_per_lap": 9,
		"category": "road",
		"track_type_text": "Road Course"
	},
	{
		"track_id": 176,
		"track_name": "Suzuka International Racing Course",
		"location": "Suzuka, Mie Prefecture, Japan",
		"latitude": 34.8455935,
		"longitude": 136.5367582,
		"track_config_length": 2.154,
		"corners_per_lap": 11,
		"category": "road",
		"track_type_text": "Road Course"
	},
	{
		"track_id": 178,
		"track_name": "Indianapolis Motor Speedway",
		"location": "Speedway, Indiana, USA",
		"latitude": 39.7953542,
		"longitude": -86.2374946,
		"track_config_length": 2.5,
		"corners_per_lap": 4,
		"category": "oval",
		"track_type_text": "Long Oval"
	},
	{
		"track_id": 179,
		"track_name": "Long Beach Street Circuit",
		"location": "Long Beach, California, USA",
		"latitude": 33.7643144,
		"longitude": -118.1917598,
		"track_config_length": 1.968,
		"corners_per_lap": 11,
		"category": "road",
		"track_type_text": "Road Course"
	},
	{
		"track_id": 180,
		"track_name": "Oulton Park Circuit",
		"location": "Little Budworth, Cheshire, England",
		"latitude": 53.1751389,
		"longitude": -2.62258,
		"track_config_length": 2.692,
		"corners_per_lap": 17,
		"category": "road",
		"track_type_text": "Road Course"
	},
	{
		"track_id": 181,
		"track_name": "Oulton Park Circuit",
		"location": "Little Budworth, Cheshire, England",
		"latitude": 53.1751389,
		"longitude": -2.62258,
		"track_config_length": 1.66,
		"corners_per_lap": 6,
		"category": "road",
		"track_type_text": "Road Course"
	},
	{
		"track_id": 182,
		"track_name": "Oulton Park Circuit",
		"location": "Little Budworth, Cheshire, England",
		"latitude": 53.1751389,
		"longitude": -2.62258,
		"track_config_length": 2.26,
		"corners_per_lap": 7,
		"category": "road",
		"track_type_text": "Road Course"
	},
	{
		"track_id": 183,
		"track_name": "Oulton Park Circuit",
		"location": "Little Budworth, Cheshire, England",
		"latitude": 53.1751389,
		"longitude": -2.62258,
		"track_config_length": 2.692,
		"corners_per_lap": 14,
		"category": "road",
		"track_type_text": "Road Course"
	},
	{
		"track_id": 184,
		"track_name": "Oulton Park Circuit",
		"location": "Little Budworth, Cheshire, England",
		"latitude": 53.1751389,
		"longitude": -2.62258,
		"track_config_length": 2.692,
		"corners_per_lap": 14,
		"category": "road",
		"track_type_text": "Road Course"
	},
	{
		"track_id": 185,
		"track_name": "Oulton Park Circuit",
		"location": "Little Budworth, Cheshire, England",
		"latitude": 53.1751389,
		"longitude": -2.62258,
		"track_config_length": 2.692,
		"corners_per_lap": 12,
		"category": "road",
		"track_type_text": "Road Course"
	},
	{
		"track_id": 186,
		"track_name": "Oulton Park Circuit",
		"location": "Little Budworth, Cheshire, England",
		"latitude": 53.1751389,
		"longitude": -2.62258,
		"track_config_length": 1.66,
		"corners_per_lap": 6,
		"category": "road",
		"track_type_text": "Road Course"
	},
	{
		"track_id": 187,
		"track_name": "Oulton Park Circuit",
		"location": "Little Budworth, Cheshire, England",
		"latitude": 53.1751389,
		"longitude": -2.62258,
		"track_config_length": 2.26,
		"corners_per_lap": 7,
		"category": "road",
		"track_type_text": "Road Course"
	},
	{
		"track_id": 188,
		"track_name": "[Legacy] Kentucky Speedway - 2011",
		"location": "Sparta, Kentucky, USA",
		"latitude": 38.7117309,
		"longitude": -84.9128033,
		"track_config_length": 1.5,
		"corners_per_lap": 4,
		"category": "oval",
		"track_type_text": "Intermediate Oval"
	},
	{
		"track_id": 189,
		"track_name": "[Legacy] Kentucky Speedway - 2011",
		"location": "Sparta, Kentucky, USA",
		"latitude": 38.7117309,
		"longitude": -84.9128033,
		"track_config_length": 0.25,
		"corners_per_lap": 4,
		"category": "oval",
		"track_type_text": "Short Oval"
	},
	{
		"track_id": 190,
		"track_name": "New Smyrna Speedway",
		"location": "New Smyrna Beach, Florida, USA",
		"latitude": 29.0136715,
		"longitude": -81.072015,
		"track_config_length": 0.48,
		"corners_per_lap": 4,
		"category": "oval",
		"track_type_text": "Short Oval"
	},
	{
		"track_id": 191,
		"track_name": "Daytona International Speedway",
		"location": "Daytona Beach, Florida, USA",
		"latitude": 29.185169,
		"longitude": -81.072722,
		"track_config_length": 2.5,
		"corners_per_lap": 4,
		"category": "oval",
		"track_type_text": "Superspeedway"
	},
	{
		"track_id": 192,
		"track_name": "Daytona International Speedway",
		"location": "Daytona Beach, Florida, USA",
		"latitude": 29.185169,
		"longitude": -81.072722,
		"track_config_length": 3.56,
		"corners_per_lap": 11,
		"category": "road",
		"track_type_text": "Road Course"
	},
	{
		"track_id": 193,
		"track_name": "Daytona International Speedway",
		"location": "Daytona Beach, Florida, USA",
		"latitude": 29.185169,
		"longitude": -81.072722,
		"track_config_length": 2.95,
		"corners_per_lap": 12,
		"category": "road",
		"track_type_text": "Road Course"
	},
	{
		"track_id": 194,
		"track_name": "Daytona International Speedway",
		"location": "Daytona Beach, Florida, USA",
		"latitude": 29.185169,
		"longitude": -81.072722,
		"track_config_length": 1.04,
		"corners_per_lap": 5,
		"category": "road",
		"track_type_text": "Road Course"
	},
	{
		"track_id": 195,
		"track_name": "Mobility Resort Motegi",
		"location": "Motegi, Tochigi Prefecture, Japan",
		"latitude": 36.531954,
		"longitude": 140.2232026,
		"track_config_length": 2.983,
		"corners_per_lap": 14,
		"category": "road",
		"track_type_text": "Road Course"
	},
	{
		"track_id": 196,
		"track_name": "Mobility Resort Motegi",
		"location": "Motegi, Tochigi Prefecture, Japan",
		"latitude": 36.531954,
		"longitude": 140.2232026,
		"track_config_length": 2.112,
		"corners_per_lap": 11,
		"category": "road",
		"track_type_text": "Road Course"
	},
	{
		"track_id": 197,
		"track_name": "Mobility Resort Motegi",
		"location": "Motegi, Tochigi Prefecture, Japan",
		"latitude": 36.531954,
		"longitude": 140.2232026,
		"track_config_length": 0.869,
		"corners_per_lap": 6,
		"category": "road",
		"track_type_text": "Road Course"
	},
	{
		"track_id": 198,
		"track_name": "Mobility Resort Motegi",
		"location": "Motegi, Tochigi Prefecture, Japan",
		"latitude": 36.531954,
		"longitude": 140.2232026,
		"track_config_length": 1.549,
		"corners_per_lap": 2,
		"category": "oval",
		"track_type_text": "Intermediate Oval"
	},
	{
		"track_id": 199,
		"track_name": "Circuit Zolder",
		"location": "Heusden-Zolder, Limburg, Belgium",
		"latitude": 50.9904979,
		"longitude": 5.25579,
		"track_config_length": 2.492,
		"corners_per_lap": 10,
		"category": "road",
		"track_type_text": "Road Course"
	},
	{
		"track_id": 200,
		"track_name": "Circuit Zolder",
		"location": "Heusden-Zolder, Limburg, Belgium",
		"latitude": 50.9904979,
		"longitude": 5.25579,
		"track_config_length": 2.492,
		"corners_per_lap": 10,
		"category": "road",
		"track_type_text": "Road Course"
	},
	{
		"track_id": 201,
		"track_name": "Langley Speedway",
		"location": "Hampton, Virginia, USA",
		"latitude": 37.0866696,
		"longitude": -76.3888498,
		"track_config_length": 0.395,
		"corners_per_lap": 4,
		"category": "oval",
		"track_type_text": "Short Oval"
	},
	{
		"track_id": 202,
		"track_name": "Oran Park Raceway",
		"location": "Narellan, New South Wales, Australia",
		"latitude": -34.006111,
		"longitude": 150.733889,
		"track_config_length": 1.62,
		"corners_per_lap": 12,
		"category": "road",
		"track_type_text": "Road Course"
	},
	{
		"track_id": 203,
		"track_name": "Rockingham Speedway",
		"location": "Rockingham, North Carolina, USA",
		"latitude": 34.9758768,
		"longitude": -79.6130802,
		"track_config_length": 1,
		"corners_per_lap": 4,
		"category": "oval",
		"track_type_text": "Mile Oval"
	},
	{
		"track_id": 204,
		"track_name": "Rockingham Speedway",
		"location": "Rockingham, North Carolina, USA",
		"latitude": 34.9758768,
		"longitude": -79.6130802,
		"track_config_length": 1.5,
		"corners_per_lap": 6,
		"category": "road",
		"track_type_text": "Road Course"
	},
	{
		"track_id": 205,
		"track_name": "Rockingham Speedway",
		"location": "Rockingham, North Carolina, USA",
		"latitude": 34.9758768,
		"longitude": -79.6130802,
		"track_config_length": 0.5,
		"corners_per_lap": 6,
		"category": "road",
		"track_type_text": "Road Course"
	},
	{
		"track_id": 206,
		"track_name": "Rockingham Speedway",
		"location": "Rockingham, North Carolina, USA",
		"latitude": 34.9758768,
		"longitude": -79.6130802,
		"track_config_length": 0.25,
		"corners_per_lap": 6,
		"category": "road",
		"track_type_text": "Road Course"
	},
	{
		"track_id": 207,
		"track_name": "Oran Park Raceway",
		"location": "Narellan, New South Wales, Australia",
		"latitude": -34.006111,
		"longitude": 150.733889,
		"track_config_length": 0.66,
		"corners_per_lap": 6,
		"category": "road",
		"track_type_text": "Road Course"
	},
	{
		"track_id": 208,
		"track_name": "Oran Park Raceway",
		"location": "Narellan, New South Wales, Australia",
		"latitude": -34.006111,
		"longitude": 150.733889,
		"track_config_length": 1.218,
		"corners_per_lap": 7,
		"category": "road",
		"track_type_text": "Road Course"
	},
	{
		"track_id": 209,
		"track_name": "Oran Park Raceway",
		"location": "Narellan, New South Wales, Australia",
		"latitude": -34.006111,
		"longitude": 150.733889,
		"track_config_length": 0.66,
		"corners_per_lap": 10,
		"category": "road",
		"track_type_text": "Road Course"
	},
	{
		"track_id": 210,
		"track_name": "Oran Park Raceway",
		"location": "Narellan, New South Wales, Australia",
		"latitude": -34.006111,
		"longitude": 150.733889,
		"track_config_length": 0.66,
		"corners_per_lap": 10,
		"category": "road",
		"track_type_text": "Road Course"
	},
	{
		"track_id": 211,
		"track_name": "Oran Park Raceway",
		"location": "Narellan, New South Wales, Australia",
		"latitude": -34.006111,
		"longitude": 150.733889,
		"track_config_length": 1.62,
		"corners_per_lap": 11,
		"category": "road",
		"track_type_text": "Road Course"
	},
	{
		"track_id": 212,
		"track_name": "Autódromo José Carlos Pace",
		"location": "Interlagos, São Paulo, Brazil",
		"latitude": -23.701185,
		"longitude": -46.7001484,
		"track_config_length": 2.676,
		"corners_per_lap": 15,
		"category": "road",
		"track_type_text": "Road Course"
	},
	{
		"track_id": 213,
		"track_name": "Autódromo José Carlos Pace",
		"location": "Interlagos, São Paulo, Brazil",
		"latitude": -23.701185,
		"longitude": -46.7001484,
		"track_config_length": 2.676,
		"corners_per_lap": 16,
		"category": "road",
		"track_type_text": "Road Course"
	},
	{
		"track_id": 214,
		"track_name": "Kansas Speedway",
		"location": "Kansas City, Kansas, USA",
		"latitude": 39.1154928,
		"longitude": -94.8328544,
		"track_config_length": 1.5,
		"corners_per_lap": 4,
		"category": "oval",
		"track_type_text": "Intermediate Oval"
	},
	{
		"track_id": 215,
		"track_name": "Kansas Speedway",
		"location": "Kansas City, Kansas, USA",
		"latitude": 39.1154928,
		"longitude": -94.8328544,
		"track_config_length": 2.37,
		"corners_per_lap": 6,
		"category": "road",
		"track_type_text": "Road Course"
	},
	{
		"track_id": 216,
		"track_name": "Kansas Speedway",
		"location": "Kansas City, Kansas, USA",
		"latitude": 39.1154928,
		"longitude": -94.8328544,
		"track_config_length": 0.86,
		"corners_per_lap": 5,
		"category": "road",
		"track_type_text": "Road Course"
	},
	{
		"track_id": 217,
		"track_name": "Irwindale Speedway",
		"location": "Irwindale, California, USA",
		"latitude": 34.1104491,
		"longitude": -117.9892554,
		"track_config_length": 0.33,
		"corners_per_lap": 4,
		"category": "road",
		"track_type_text": "Short Oval"
	},
	{
		"track_id": 218,
		"track_name": "Circuit Gilles Villeneuve",
		"location": "Montreal, Quebec, Canada",
		"latitude": 45.5032189,
		"longitude": -73.5288816,
		"track_config_length": 2.71,
		"corners_per_lap": 13,
		"category": "road",
		"track_type_text": "Road Course"
	},
	{
		"track_id": 219,
		"track_name": "Mount Panorama Circuit",
		"location": "Bathurst, New South Wales, Australia",
		"latitude": -33.4394191,
		"longitude": 149.5557112,
		"track_config_length": 3.861,
		"corners_per_lap": 23,
		"category": "road",
		"track_type_text": "Road Course"
	},
	{
		"track_id": 220,
		"track_name": "New Jersey Motorsports Park",
		"location": "Millville, New Jersey, USA",
		"latitude": 39.3589862,
		"longitude": -75.0638076,
		"track_config_length": 2.25,
		"corners_per_lap": 14,
		"category": "road",
		"track_type_text": "Road Course"
	},
	{
		"track_id": 221,
		"track_name": "New Jersey Motorsports Park",
		"location": "Millville, New Jersey, USA",
		"latitude": 39.3589862,
		"longitude": -75.0638076,
		"track_config_length": 2.25,
		"corners_per_lap": 18,
		"category": "road",
		"track_type_text": "Road Course"
	},
	{
		"track_id": 222,
		"track_name": "New Hampshire Motor Speedway",
		"location": "Loudon, New Hampshire, USA",
		"latitude": 43.36268,
		"longitude": -71.462767,
		"track_config_length": 0.25,
		"corners_per_lap": 4,
		"category": "oval",
		"track_type_text": "Short Oval"
	},
	{
		"track_id": 223,
		"track_name": "New Jersey Motorsports Park",
		"location": "Millville, New Jersey, USA",
		"latitude": 39.3589862,
		"longitude": -75.0638076,
		"track_config_length": 2.25,
		"corners_per_lap": 16,
		"category": "road",
		"track_type_text": "Road Course"
	},
	{
		"track_id": 224,
		"track_name": "New Jersey Motorsports Park",
		"location": "Millville, New Jersey, USA",
		"latitude": 39.3589862,
		"longitude": -75.0638076,
		"track_config_length": 2.25,
		"corners_per_lap": 16,
		"category": "road",
		"track_type_text": "Road Course"
	},
	{
		"track_id": 225,
		"track_name": "Auto Club Speedway",
		"location": "Fontana, California, USA",
		"latitude": 34.0888203,
		"longitude": -117.5026942,
		"track_config_length": 2,
		"corners_per_lap": 4,
		"category": "oval",
		"track_type_text": "Long Oval"
	},
	{
		"track_id": 226,
		"track_name": "Auto Club Speedway",
		"location": "Fontana, California, USA",
		"latitude": 34.0888203,
		"longitude": -117.5026942,
		"track_config_length": 2.8,
		"corners_per_lap": 19,
		"category": "road",
		"track_type_text": "Road Course"
	},
	{
		"track_id": 227,
		"track_name": "Auto Club Speedway",
		"location": "Fontana, California, USA",
		"latitude": 34.0888203,
		"longitude": -117.5026942,
		"track_config_length": 2.36,
		"corners_per_lap": 21,
		"category": "road",
		"track_type_text": "Road Course"
	},
	{
		"track_id": 228,
		"track_name": "Auto Club Speedway",
		"location": "Fontana, California, USA",
		"latitude": 34.0888203,
		"longitude": -117.5026942,
		"track_config_length": 1.5,
		"corners_per_lap": 17,
		"category": "road",
		"track_type_text": "Road Course"
	},
	{
		"track_id": 229,
		"track_name": "Circuit of the Americas",
		"location": "Austin, Texas, USA",
		"latitude": 30.1345808,
		"longitude": -97.6380451,
		"track_config_length": 3.427,
		"corners_per_lap": 16,
		"category": "road",
		"track_type_text": "Road Course"
	},
	{
		"track_id": 230,
		"track_name": "Circuit of the Americas",
		"location": "Austin, Texas, USA",
		"latitude": 30.1345808,
		"longitude": -97.6380451,
		"track_config_length": 1.5,
		"corners_per_lap": 6,
		"category": "road",
		"track_type_text": "Road Course"
	},
	{
		"track_id": 231,
		"track_name": "Circuit of the Americas",
		"location": "Austin, Texas, USA",
		"latitude": 30.1345808,
		"longitude": -97.6380451,
		"track_config_length": 2.6,
		"corners_per_lap": 16,
		"category": "road",
		"track_type_text": "Road Course"
	},
	{
		"track_id": 232,
		"track_name": "Lucas Oil Indianapolis Raceway Park",
		"location": "Indianapolis, Indiana, USA",
		"latitude": 39.812512,
		"longitude": -86.340527,
		"track_config_length": 0.686,
		"corners_per_lap": 4,
		"category": "oval",
		"track_type_text": "Short Oval"
	},
	{
		"track_id": 233,
		"track_name": "Donington Park Racing Circuit",
		"location": "Castle Donington, Leicestershire, England",
		"latitude": 52.8305468,
		"longitude": -1.3810343,
		"track_config_length": 2.498,
		"corners_per_lap": 12,
		"category": "road",
		"track_type_text": "Road Course"
	},
	{
		"track_id": 234,
		"track_name": "Donington Park Racing Circuit",
		"location": "Castle Donington, Leicestershire, England",
		"latitude": 52.8305468,
		"longitude": -1.3810343,
		"track_config_length": 1.957,
		"corners_per_lap": 10,
		"category": "road",
		"track_type_text": "Road Course"
	},
	{
		"track_id": 235,
		"track_name": "[Retired] Phoenix Raceway",
		"location": "Phoenix, Arizona, USA",
		"latitude": 33.37487,
		"longitude": -112.313415,
		"track_config_length": 1,
		"corners_per_lap": 4,
		"category": "oval",
		"track_type_text": "Mile Oval"
	},
	{
		"track_id": 236,
		"track_name": "[Retired] Phoenix Raceway",
		"location": "Phoenix, Arizona, USA",
		"latitude": 33.37487,
		"longitude": -112.313415,
		"track_config_length": 1.51,
		"corners_per_lap": 4,
		"category": "oval",
		"track_type_text": "Intermediate Oval"
	},
	{
		"track_id": 237,
		"track_name": "World Wide Technology Raceway (Gateway)",
		"location": "Madison, Illinois, USA",
		"latitude": 38.6507543,
		"longitude": -90.1375489,
		"track_config_length": 1.25,
		"corners_per_lap": 4,
		"category": "oval",
		"track_type_text": "Mile Oval"
	},
	{
		"track_id": 238,
		"track_name": "World Wide Technology Raceway (Gateway)",
		"location": "Madison, Illinois, USA",
		"latitude": 38.6507543,
		"longitude": -90.1375489,
		"track_config_length": 1.6,
		"corners_per_lap": 8,
		"category": "road",
		"track_type_text": "Road Course"
	},
	{
		"track_id": 239,
		"track_name": "Autodromo Nazionale Monza",
		"location": "Monza, Lombardy, Italy",
		"latitude": 45.621799,
		"longitude": 9.282606,
		"track_config_length": 3.6,
		"corners_per_lap": 11,
		"category": "road",
		"track_type_text": "Road Course"
	},
	{
		"track_id": 240,
		"track_name": "Autodromo Nazionale Monza",
		"location": "Monza, Lombardy, Italy",
		"latitude": 45.621799,
		"longitude": 9.282606,
		"track_config_length": 6.213,
		"corners_per_lap": 9,
		"category": "road",
		"track_type_text": "Road Course"
	},
	{
		"track_id": 241,
		"track_name": "Autodromo Nazionale Monza",
		"location": "Monza, Lombardy, Italy",
		"latitude": 45.621799,
		"longitude": 9.282606,
		"track_config_length": 1.494,
		"corners_per_lap": 4,
		"category": "road",
		"track_type_text": "Road Course"
	},
	{
		"track_id": 242,
		"track_name": "Autodromo Nazionale Monza",
		"location": "Monza, Lombardy, Italy",
		"latitude": 45.621799,
		"longitude": 9.282606,
		"track_config_length": 3.5,
		"corners_per_lap": 9,
		"category": "road",
		"track_type_text": "Road Course"
	},
	{
		"track_id": 243,
		"track_name": "Autodromo Nazionale Monza",
		"location": "Monza, Lombardy, Italy",
		"latitude": 45.621799,
		"longitude": 9.282606,
		"track_config_length": 2.641,
		"corners_per_lap": 4,
		"category": "oval",
		"track_type_text": "Long Oval"
	},
	{
		"track_id": 244,
		"track_name": "Autodromo Nazionale Monza",
		"location": "Monza, Lombardy, Italy",
		"latitude": 45.621799,
		"longitude": 9.282606,
		"track_config_length": 3.5,
		"corners_per_lap": 9,
		"category": "road",
		"track_type_text": "Road Course"
	},
	{
		"track_id": 245,
		"track_name": "Autodromo Nazionale Monza",
		"location": "Monza, Lombardy, Italy",
		"latitude": 45.621799,
		"longitude": 9.282606,
		"track_config_length": 2.641,
		"corners_per_lap": 4,
		"category": "oval",
		"track_type_text": "Long Oval"
	},
	{
		"track_id": 246,
		"track_name": "Autodromo Nazionale Monza",
		"location": "Monza, Lombardy, Italy",
		"latitude": 45.621799,
		"longitude": 9.282606,
		"track_config_length": 6.213,
		"corners_per_lap": 11,
		"category": "road",
		"track_type_text": "Road Course"
	},
	{
		"track_id": 247,
		"track_name": "Autodromo Nazionale Monza",
		"location": "Monza, Lombardy, Italy",
		"latitude": 45.621799,
		"longitude": 9.282606,
		"track_config_length": 6.213,
		"corners_per_lap": 15,
		"category": "road",
		"track_type_text": "Road Course"
	},
	{
		"track_id": 248,
		"track_name": "Five Flags Speedway",
		"location": "Pensacola, Florida, USA",
		"latitude": 30.503841,
		"longitude": -87.310641,
		"track_config_length": 0.5,
		"corners_per_lap": 4,
		"category": "oval",
		"track_type_text": "Short Oval"
	},
	{
		"track_id": 249,
		"track_name": "Nürburgring Nordschleife",
		"location": "Nürburg, Rhineland-Palatinate, Germany",
		"latitude": 50.3334443,
		"longitude": 6.9392429,
		"track_config_length": 14.173,
		"corners_per_lap": 154,
		"category": "road",
		"track_type_text": "Road Course"
	},
	{
		"track_id": 250,
		"track_name": "Nürburgring Grand-Prix-Strecke",
		"location": "Nürburg, Rhineland-Palatinate, Germany",
		"latitude": 50.3334443,
		"longitude": 6.9392429,
		"track_config_length": 3.199,
		"corners_per_lap": 16,
		"category": "road",
		"track_type_text": "Road Course"
	},
	{
		"track_id": 252,
		"track_name": "Nürburgring Combined",
		"location": "Nürburg, Rhineland-Palatinate, Germany",
		"latitude": 50.3334443,
		"longitude": 6.9392429,
		"track_config_length": 16.123,
		"corners_per_lap": 170,
		"category": "road",
		"track_type_text": "Road Course"
	},
	{
		"track_id": 253,
		"track_name": "Nürburgring Nordschleife",
		"location": "Nürburg, Rhineland-Palatinate, Germany",
		"latitude": 50.3334443,
		"longitude": 6.9392429,
		"track_config_length": 14.173,
		"corners_per_lap": 154,
		"category": "road",
		"track_type_text": "Road Course"
	},
	{
		"track_id": 255,
		"track_name": "Nürburgring Grand-Prix-Strecke",
		"location": "Nürburg, Rhineland-Palatinate, Germany",
		"latitude": 50.3334443,
		"longitude": 6.9392429,
		"track_config_length": 3.15,
		"corners_per_lap": 16,
		"category": "road",
		"track_type_text": "Road Course"
	},
	{
		"track_id": 256,
		"track_name": "Southern National Motorsports Park",
		"location": "Lucama, North Carolina, USA",
		"latitude": 35.6112291,
		"longitude": -78.0630003,
		"track_config_length": 0.4,
		"corners_per_lap": 4,
		"category": "oval",
		"track_type_text": "Short Oval"
	},
	{
		"track_id": 257,
		"track_name": "Nürburgring Grand-Prix-Strecke",
		"location": "Nürburg, Rhineland-Palatinate, Germany",
		"latitude": 50.3334443,
		"longitude": 6.9392429,
		"track_config_length": 2.845,
		"corners_per_lap": 12,
		"category": "road",
		"track_type_text": "Road Course"
	},
	{
		"track_id": 259,
		"track_name": "Nürburgring Grand-Prix-Strecke",
		"location": "Nürburg, Rhineland-Palatinate, Germany",
		"latitude": 50.3334443,
		"longitude": 6.9392429,
		"track_config_length": 2.254,
		"corners_per_lap": 11,
		"category": "road",
		"track_type_text": "Road Course"
	},
	{
		"track_id": 260,
		"track_name": "Nürburgring Grand-Prix-Strecke",
		"location": "Nürburg, Rhineland-Palatinate, Germany",
		"latitude": 50.3334443,
		"longitude": 6.9392429,
		"track_config_length": 1.895,
		"corners_per_lap": 9,
		"category": "road",
		"track_type_text": "Road Course"
	},
	{
		"track_id": 261,
		"track_name": "Nürburgring Grand-Prix-Strecke",
		"location": "Nürburg, Rhineland-Palatinate, Germany",
		"latitude": 50.3334443,
		"longitude": 6.9392429,
		"track_config_length": 0.932,
		"corners_per_lap": 7,
		"category": "road",
		"track_type_text": "Road Course"
	},
	{
		"track_id": 262,
		"track_name": "Nürburgring Combined",
		"location": "Nürburg, Rhineland-Palatinate, Germany",
		"latitude": 50.3334443,
		"longitude": 6.9392429,
		"track_config_length": 15.183,
		"corners_per_lap": 165,
		"category": "road",
		"track_type_text": "Road Course"
	},
	{
		"track_id": 263,
		"track_name": "Nürburgring Combined",
		"location": "Nürburg, Rhineland-Palatinate, Germany",
		"latitude": 50.3334443,
		"longitude": 6.9392429,
		"track_config_length": 14.829,
		"corners_per_lap": 164,
		"category": "road",
		"track_type_text": "Road Course"
	},
	{
		"track_id": 264,
		"track_name": "Nürburgring Combined",
		"location": "Nürburg, Rhineland-Palatinate, Germany",
		"latitude": 50.3334443,
		"longitude": 6.9392429,
		"track_config_length": 16.123,
		"corners_per_lap": 169,
		"category": "road",
		"track_type_text": "Road Course"
	},
	{
		"track_id": 266,
		"track_name": "Autodromo Internazionale Enzo e Dino Ferrari",
		"location": "Imola, Emilia-Romagna, Italy",
		"latitude": 44.3443574,
		"longitude": 11.717198,
		"track_config_length": 3.05,
		"corners_per_lap": 17,
		"category": "road",
		"track_type_text": "Road Course"
	},
	{
		"track_id": 267,
		"track_name": "Autodromo Internazionale Enzo e Dino Ferrari",
		"location": "Imola, Emilia-Romagna, Italy",
		"latitude": 44.3443574,
		"longitude": 11.717198,
		"track_config_length": 3.067,
		"corners_per_lap": 19,
		"category": "road",
		"track_type_text": "Road Course"
	},
	{
		"track_id": 268,
		"track_name": "Circuit des 24 Heures du Mans",
		"location": "Le Mans, Pays de la Loire, France",
		"latitude": 47.9560052,
		"longitude": 0.2056765,
		"track_config_length": 8.469,
		"corners_per_lap": 38,
		"category": "road",
		"track_type_text": "Road Course"
	},
	{
		"track_id": 269,
		"track_name": "Circuit des 24 Heures du Mans",
		"location": "Le Mans, Pays de la Loire, France",
		"latitude": 47.9560052,
		"longitude": 0.2056765,
		"track_config_length": 8.428,
		"corners_per_lap": 32,
		"category": "road",
		"track_type_text": "Road Course"
	},
	{
		"track_id": 271,
		"track_name": "The Bullring",
		"location": "Las Vegas, Nevada, USA",
		"latitude": 36.2632543,
		"longitude": -115.02155,
		"track_config_length": 0.375,
		"corners_per_lap": 4,
		"category": "oval",
		"track_type_text": "Short Oval"
	},
	{
		"track_id": 273,
		"track_name": "Eldora Speedway",
		"location": "Rossburg, Ohio, USA",
		"latitude": 40.319015,
		"longitude": -84.6363383,
		"track_config_length": 0.5,
		"corners_per_lap": 4,
		"category": "dirt_oval",
		"track_type_text": "Dirt Oval Course"
	},
	{
		"track_id": 274,
		"track_name": "Williams Grove Speedway",
		"location": "Mechanicsburg, Pennsylvania, USA",
		"latitude": 40.155193,
		"longitude": -77.035617,
		"track_config_length": 0.5,
		"corners_per_lap": 4,
		"category": "dirt_oval",
		"track_type_text": "Dirt Oval Course"
	},
	{
		"track_id": 275,
		"track_name": "USA International Speedway",
		"location": "Lakeland, Florida, USA",
		"latitude": 28.1515,
		"longitude": -81.892694,
		"track_config_length": 0.75,
		"corners_per_lap": 4,
		"category": "dirt_oval",
		"track_type_text": "Dirt Oval Course"
	},
	{
		"track_id": 276,
		"track_name": "Michigan International Speedway",
		"location": "Brooklyn, Michigan, USA",
		"latitude": 42.0678836,
		"longitude": -84.2470556,
		"track_config_length": 2,
		"corners_per_lap": 4,
		"category": "oval",
		"track_type_text": "Long Oval"
	},
	{
		"track_id": 277,
		"track_name": "Pocono Raceway",
		"location": "Long Pond, Pennsylvania, USA",
		"latitude": 41.0543442,
		"longitude": -75.513473,
		"track_config_length": 2.5,
		"corners_per_lap": 3,
		"category": "oval",
		"track_type_text": "Long Oval"
	},
	{
		"track_id": 279,
		"track_name": "Volusia Speedway Park",
		"location": "De Leon Springs, Florida, USA",
		"latitude": 29.2150215,
		"longitude": -81.3475005,
		"track_config_length": 0.5,
		"corners_per_lap": 4,
		"category": "dirt_oval",
		"track_type_text": "Dirt Oval Course"
	},
	{
		"track_id": 286,
		"track_name": "Myrtle Beach Speedway",
		"location": "Myrtle Beach, South Carolina, USA",
		"latitude": 33.7455794,
		"longitude": -78.9546613,
		"track_config_length": 0.538,
		"corners_per_lap": 4,
		"category": "oval",
		"track_type_text": "Short Oval"
	},
	{
		"track_id": 287,
		"track_name": "Bristol Motor Speedway",
		"location": "Bristol, Tennessee, USA",
		"latitude": 36.515694,
		"longitude": -82.2591607,
		"track_config_length": 0.533,
		"corners_per_lap": 4,
		"category": "dirt_oval",
		"track_type_text": "Dirt Oval Course"
	},
	{
		"track_id": 288,
		"track_name": "Lanier National Speedway",
		"location": "Braselton, Georgia, USA",
		"latitude": 34.153424,
		"longitude": -83.8149922,
		"track_config_length": 0.375,
		"corners_per_lap": 4,
		"category": "dirt_oval",
		"track_type_text": "Dirt Oval Course"
	},
	{
		"track_id": 290,
		"track_name": "Brands Hatch Circuit",
		"location": "Fawkham, Kent, England",
		"latitude": 51.3581048,
		"longitude": 0.2536338,
		"track_config_length": 1.21,
		"corners_per_lap": 6,
		"category": "dirt_road",
		"track_type_text": "Dirt Road Course"
	},
	{
		"track_id": 293,
		"track_name": "Daytona Rallycross and Dirt Road",
		"location": "Daytona Beach, Florida, USA",
		"latitude": 29.185169,
		"longitude": -81.072722,
		"track_config_length": 0.86,
		"corners_per_lap": 9,
		"category": "dirt_road",
		"track_type_text": "Dirt Road Course"
	},
	{
		"track_id": 295,
		"track_name": "Iowa Speedway",
		"location": "Newton, Iowa, USA",
		"latitude": 41.674667,
		"longitude": -93.015162,
		"track_config_length": 0.66,
		"corners_per_lap": 8,
		"category": "dirt_road",
		"track_type_text": "Dirt Road Course"
	},
	{
		"track_id": 296,
		"track_name": "Daytona Rallycross and Dirt Road",
		"location": "Daytona Beach, Florida, USA",
		"latitude": 29.185169,
		"longitude": -81.072722,
		"track_config_length": 0.71,
		"corners_per_lap": 8,
		"category": "dirt_road",
		"track_type_text": "Dirt Road Course"
	},
	{
		"track_id": 297,
		"track_name": "Snetterton Circuit",
		"location": "Snetterton, Norfolk, England",
		"latitude": 52.4636482,
		"longitude": 0.943612,
		"track_config_length": 2.98,
		"corners_per_lap": 13,
		"category": "road",
		"track_type_text": "Road Course"
	},
	{
		"track_id": 298,
		"track_name": "Snetterton Circuit",
		"location": "Snetterton, Norfolk, England",
		"latitude": 52.4636482,
		"longitude": 0.943612,
		"track_config_length": 2,
		"corners_per_lap": 8,
		"category": "road",
		"track_type_text": "Road Course"
	},
	{
		"track_id": 299,
		"track_name": "Snetterton Circuit",
		"location": "Snetterton, Norfolk, England",
		"latitude": 52.4636482,
		"longitude": 0.943612,
		"track_config_length": 0.98,
		"corners_per_lap": 6,
		"category": "road",
		"track_type_text": "Road Course"
	},
	{
		"track_id": 303,
		"track_name": "Limaland Motorsports Park",
		"location": "Lima, Ohio, USA",
		"latitude": 40.759639,
		"longitude": -84.194174,
		"track_config_length": 0.25,
		"corners_per_lap": 4,
		"category": "dirt_oval",
		"track_type_text": "Dirt Oval Course"
	},
	{
		"track_id": 304,
		"track_name": "Lucas Oil Indianapolis Raceway Park",
		"location": "Indianapolis, Indiana, USA",
		"latitude": 39.812512,
		"longitude": -86.340527,
		"track_config_length": 0.79,
		"corners_per_lap": 5,
		"category": "dirt_road",
		"track_type_text": "Dirt Road Course"
	},
	{
		"track_id": 305,
		"track_name": "Knoxville Raceway",
		"location": "Knoxville, Iowa, USA",
		"latitude": 41.3265101,
		"longitude": -93.1140141,
		"track_config_length": 0.5,
		"corners_per_lap": 4,
		"category": "dirt_oval",
		"track_type_text": "Dirt Oval Course"
	},
	{
		"track_id": 306,
		"track_name": "[Legacy] Phoenix Raceway - 2008",
		"location": "Avondale, Arizona, USA",
		"latitude": 33.37487,
		"longitude": -112.313415,
		"track_config_length": 0.76,
		"corners_per_lap": 9,
		"category": "dirt_road",
		"track_type_text": "Dirt Road Course"
	},
	{
		"track_id": 312,
		"track_name": "Sonoma Raceway",
		"location": "Sonoma, California, USA",
		"latitude": 38.1608659,
		"longitude": -122.4568882,
		"track_config_length": 0.93,
		"corners_per_lap": 5,
		"category": "dirt_road",
		"track_type_text": "Dirt Road Course"
	},
	{
		"track_id": 314,
		"track_name": "The Dirt Track at Charlotte",
		"location": "Concord, North Carolina, USA",
		"latitude": 35.3580208,
		"longitude": -80.6874523,
		"track_config_length": 0.4,
		"corners_per_lap": 4,
		"category": "dirt_oval",
		"track_type_text": "Dirt Oval Course"
	},
	{
		"track_id": 319,
		"track_name": "Detroit Grand Prix at Belle Isle",
		"location": "Detroit, Michigan, USA",
		"latitude": 42.335007,
		"longitude": -83.001598,
		"track_config_length": 2.35,
		"corners_per_lap": 14,
		"category": "road",
		"track_type_text": "Road Course"
	},
	{
		"track_id": 320,
		"track_name": "Kokomo Speedway",
		"location": "Kokomo, Indiana, USA",
		"latitude": 40.5111901,
		"longitude": -86.1455678,
		"track_config_length": 0.25,
		"corners_per_lap": 4,
		"category": "dirt_oval",
		"track_type_text": "Dirt Oval Course"
	},
	{
		"track_id": 322,
		"track_name": "EchoPark Speedway (Atlanta)",
		"location": "Hampton, Georgia, USA",
		"latitude": 33.3859794,
		"longitude": -84.3184714,
		"track_config_length": 0.68,
		"corners_per_lap": 8,
		"category": "dirt_road",
		"track_type_text": "Dirt Road Course"
	},
	{
		"track_id": 323,
		"track_name": "EchoPark Speedway (Atlanta)",
		"location": "Hampton, Georgia, USA",
		"latitude": 33.3859794,
		"longitude": -84.3184714,
		"track_config_length": 0.97,
		"corners_per_lap": 8,
		"category": "dirt_road",
		"track_type_text": "Dirt Road Course"
	},
	{
		"track_id": 324,
		"track_name": "Tsukuba Circuit",
		"location": "Shimotsuma, Ibaraki Prefecture, Japan",
		"latitude": 36.1527975,
		"longitude": 139.9180586,
		"track_config_length": 1.271,
		"corners_per_lap": 12,
		"category": "road",
		"track_type_text": "Road Course"
	},
	{
		"track_id": 325,
		"track_name": "Tsukuba Circuit",
		"location": "Shimotsuma, Ibaraki Prefecture, Japan",
		"latitude": 36.1527975,
		"longitude": 139.9180586,
		"track_config_length": 1.287,
		"corners_per_lap": 14,
		"category": "road",
		"track_type_text": "Road Course"
	},
	{
		"track_id": 326,
		"track_name": "Tsukuba Circuit",
		"location": "Shimotsuma, Ibaraki Prefecture, Japan",
		"latitude": 36.1527975,
		"longitude": 139.9180586,
		"track_config_length": 1,
		"corners_per_lap": 6,
		"category": "road",
		"track_type_text": "Road Course"
	},
	{
		"track_id": 327,
		"track_name": "Tsukuba Circuit",
		"location": "Shimotsuma, Ibaraki Prefecture, Japan",
		"latitude": 36.1527975,
		"longitude": 139.9180586,
		"track_config_length": 0.621,
		"corners_per_lap": 10,
		"category": "road",
		"track_type_text": "Road Course"
	},
	{
		"track_id": 328,
		"track_name": "Tsukuba Circuit",
		"location": "Shimotsuma, Ibaraki Prefecture, Japan",
		"latitude": 36.1527975,
		"longitude": 139.9180586,
		"track_config_length": 0.5,
		"corners_per_lap": 4,
		"category": "road",
		"track_type_text": "Road Course"
	},
	{
		"track_id": 329,
		"track_name": "Tsukuba Circuit",
		"location": "Shimotsuma, Ibaraki Prefecture, Japan",
		"latitude": 36.1527975,
		"longitude": 139.9180586,
		"track_config_length": 0.625,
		"corners_per_lap": 13,
		"category": "road",
		"track_type_text": "Road Course"
	},
	{
		"track_id": 330,
		"track_name": "Charlotte Motor Speedway",
		"location": "Concord, North Carolina, USA",
		"latitude": 35.3511641,
		"longitude": -80.6912655,
		"track_config_length": 2.28,
		"corners_per_lap": 12,
		"category": "road",
		"track_type_text": "Road Course"
	},
	{
		"track_id": 331,
		"track_name": "Chili Bowl",
		"location": "Tulsa, Oklahoma, USA",
		"latitude": 36.133274,
		"longitude": -95.943721,
		"track_config_length": 0.25,
		"corners_per_lap": 4,
		"category": "dirt_oval",
		"track_type_text": "Dirt Oval Course"
	},
	{
		"track_id": 332,
		"track_name": "Wild West Motorsports Park",
		"location": "Sparks, Nevada, USA",
		"latitude": 39.510394,
		"longitude": -119.663776,
		"track_config_length": 1.5,
		"corners_per_lap": 4,
		"category": "dirt_road",
		"track_type_text": "Dirt Road Course"
	},
	{
		"track_id": 333,
		"track_name": "Tsukuba Circuit",
		"location": "Shimotsuma, Ibaraki Prefecture, Japan",
		"latitude": 36.1527975,
		"longitude": 139.9180586,
		"track_config_length": 0.621,
		"corners_per_lap": 10,
		"category": "road",
		"track_type_text": "Road Course"
	},
	{
		"track_id": 334,
		"track_name": "Firebird Motorsports Park",
		"location": "Chandler, Arizona, USA",
		"latitude": 33.268889,
		"longitude": -111.966111,
		"track_config_length": 1.5,
		"corners_per_lap": 5,
		"category": "dirt_road",
		"track_type_text": "Dirt Road Course"
	},
	{
		"track_id": 335,
		"track_name": "Charlotte Motor Speedway",
		"location": "Concord, North Carolina, USA",
		"latitude": 35.3511641,
		"longitude": -80.6912655,
		"track_config_length": 0.25,
		"corners_per_lap": 4,
		"category": "oval",
		"track_type_text": "Short Oval"
	},
	{
		"track_id": 336,
		"track_name": "Charlotte Motor Speedway",
		"location": "Concord, North Carolina, USA",
		"latitude": 35.3511641,
		"longitude": -80.6912655,
		"track_config_length": 1.5,
		"corners_per_lap": 13,
		"category": "road",
		"track_type_text": "Road Course"
	},
	{
		"track_id": 337,
		"track_name": "Charlotte Motor Speedway",
		"location": "Concord, North Carolina, USA",
		"latitude": 35.3511641,
		"longitude": -80.6912655,
		"track_config_length": 1.25,
		"corners_per_lap": 11,
		"category": "road",
		"track_type_text": "Road Course"
	},
	{
		"track_id": 338,
		"track_name": "Charlotte Motor Speedway",
		"location": "Concord, North Carolina, USA",
		"latitude": 35.3511641,
		"longitude": -80.6912655,
		"track_config_length": 0.72,
		"corners_per_lap": 7,
		"category": "road",
		"track_type_text": "Road Course"
	},
	{
		"track_id": 339,
		"track_name": "Charlotte Motor Speedway",
		"location": "Concord, North Carolina, USA",
		"latitude": 35.3511641,
		"longitude": -80.6912655,
		"track_config_length": 1.5,
		"corners_per_lap": 4,
		"category": "oval",
		"track_type_text": "Intermediate Oval"
	},
	{
		"track_id": 340,
		"track_name": "Charlotte Motor Speedway",
		"location": "Concord, North Carolina, USA",
		"latitude": 35.3511641,
		"longitude": -80.6912655,
		"track_config_length": 2.42,
		"corners_per_lap": 18,
		"category": "road",
		"track_type_text": "Road Course"
	},
	{
		"track_id": 341,
		"track_name": "Silverstone Circuit",
		"location": "Towcester, Northamptonshire, England",
		"latitude": 52.0733006,
		"longitude": -1.0168574,
		"track_config_length": 3.661,
		"corners_per_lap": 18,
		"category": "road",
		"track_type_text": "Road Course"
	},
	{
		"track_id": 342,
		"track_name": "Silverstone Circuit",
		"location": "Towcester, Northamptonshire, England",
		"latitude": 52.0733006,
		"longitude": -1.0168574,
		"track_config_length": 1.851,
		"corners_per_lap": 9,
		"category": "road",
		"track_type_text": "Road Course"
	},
	{
		"track_id": 343,
		"track_name": "Silverstone Circuit",
		"location": "Towcester, Northamptonshire, England",
		"latitude": 52.0733006,
		"longitude": -1.0168574,
		"track_config_length": 1.64,
		"corners_per_lap": 6,
		"category": "road",
		"track_type_text": "Road Course"
	},
	{
		"track_id": 344,
		"track_name": "Fairbury Speedway",
		"location": "Fairbury, Illinois, USA",
		"latitude": 40.740155,
		"longitude": -88.514774,
		"track_config_length": 0.25,
		"corners_per_lap": 4,
		"category": "dirt_oval",
		"track_type_text": "Dirt Oval Course"
	},
	{
		"track_id": 345,
		"track_name": "Circuit de Barcelona Catalunya",
		"location": "Montmeló, Catalonia, Spain",
		"latitude": 41.568749,
		"longitude": 2.257138,
		"track_config_length": 2.892,
		"corners_per_lap": 16,
		"category": "road",
		"track_type_text": "Road Course"
	},
	{
		"track_id": 346,
		"track_name": "Circuit de Barcelona Catalunya",
		"location": "Montmeló, Catalonia, Spain",
		"latitude": 41.568749,
		"longitude": 2.257138,
		"track_config_length": 1.85,
		"corners_per_lap": 11,
		"category": "road",
		"track_type_text": "Road Course"
	},
	{
		"track_id": 347,
		"track_name": "Circuit de Barcelona Catalunya",
		"location": "Montmeló, Catalonia, Spain",
		"latitude": 41.568749,
		"longitude": 2.257138,
		"track_config_length": 1.058,
		"corners_per_lap": 6,
		"category": "road",
		"track_type_text": "Road Course"
	},
	{
		"track_id": 348,
		"track_name": "Circuit de Barcelona Catalunya",
		"location": "Montmeló, Catalonia, Spain",
		"latitude": 41.568749,
		"longitude": 2.257138,
		"track_config_length": 2.891,
		"corners_per_lap": 11,
		"category": "road",
		"track_type_text": "Road Course"
	},
	{
		"track_id": 349,
		"track_name": "Circuit de Barcelona Catalunya",
		"location": "Montmeló, Catalonia, Spain",
		"latitude": 41.568749,
		"longitude": 2.257138,
		"track_config_length": 2.937,
		"corners_per_lap": 13,
		"category": "road",
		"track_type_text": "Road Course"
	},
	{
		"track_id": 350,
		"track_name": "Charlotte Motor Speedway",
		"location": "Concord, North Carolina, USA",
		"latitude": 35.3511641,
		"longitude": -80.6912655,
		"track_config_length": 2.28,
		"corners_per_lap": 12,
		"category": "road",
		"track_type_text": "Road Course"
	},
	{
		"track_id": 351,
		"track_name": "Lernerville Speedway",
		"location": "Sarver, Pennsylvania, USA",
		"latitude": 40.738633,
		"longitude": -79.759479,
		"track_config_length": 0.4,
		"corners_per_lap": 4,
		"category": "dirt_oval",
		"track_type_text": "Dirt Oval Course"
	},
	{
		"track_id": 352,
		"track_name": "Lime Rock Park",
		"location": "Lakeville, Connecticut, USA",
		"latitude": 41.9282105,
		"longitude": -73.3839642,
		"track_config_length": 1.53,
		"corners_per_lap": 7,
		"category": "road",
		"track_type_text": "Road Course"
	},
	{
		"track_id": 353,
		"track_name": "Lime Rock Park",
		"location": "Lakeville, Connecticut, USA",
		"latitude": 41.9282105,
		"longitude": -73.3839642,
		"track_config_length": 1.53,
		"corners_per_lap": 9,
		"category": "road",
		"track_type_text": "Road Course"
	},
	{
		"track_id": 354,
		"track_name": "Lime Rock Park",
		"location": "Lakeville, Connecticut, USA",
		"latitude": 41.9282105,
		"longitude": -73.3839642,
		"track_config_length": 1.53,
		"corners_per_lap": 11,
		"category": "road",
		"track_type_text": "Road Course"
	},
	{
		"track_id": 355,
		"track_name": "Lime Rock Park",
		"location": "Lakeville, Connecticut, USA",
		"latitude": 41.9282105,
		"longitude": -73.3839642,
		"track_config_length": 1.53,
		"corners_per_lap": 7,
		"category": "road",
		"track_type_text": "Road Course"
	},
	{
		"track_id": 357,
		"track_name": "Texas Motor Speedway",
		"location": "Fort Worth, Texas, USA",
		"latitude": 33.0373257,
		"longitude": -97.2843123,
		"track_config_length": 1.5,
		"corners_per_lap": 4,
		"category": "oval",
		"track_type_text": "Intermediate Oval"
	},
	{
		"track_id": 358,
		"track_name": "Lånkebanen (Hell RX)",
		"location": "Hell, Trøndelag, Norway",
		"latitude": 63.405094,
		"longitude": 10.920655,
		"track_config_length": 0.633,
		"corners_per_lap": 7,
		"category": "dirt_road",
		"track_type_text": "Dirt Road Course"
	},
	{
		"track_id": 359,
		"track_name": "Lånkebanen (Hell RX)",
		"location": "Hell, Trøndelag, Norway",
		"latitude": 63.405094,
		"longitude": 10.920655,
		"track_config_length": 0.641,
		"corners_per_lap": 9,
		"category": "dirt_road",
		"track_type_text": "Dirt Road Course"
	},
	{
		"track_id": 360,
		"track_name": "Lånkebanen (Hell RX)",
		"location": "Hell, Trøndelag, Norway",
		"latitude": 63.405094,
		"longitude": 10.920655,
		"track_config_length": 0.672,
		"corners_per_lap": 8,
		"category": "dirt_road",
		"track_type_text": "Dirt Road Course"
	},
	{
		"track_id": 361,
		"track_name": "Lånkebanen (Hell RX)",
		"location": "Hell, Trøndelag, Norway",
		"latitude": 63.405094,
		"longitude": 10.920655,
		"track_config_length": 0.458,
		"corners_per_lap": 8,
		"category": "road",
		"track_type_text": "Dirt Road Course"
	},
	{
		"track_id": 362,
		"track_name": "Homestead Miami Speedway",
		"location": "Homestead, Florida, USA",
		"latitude": 25.4517775,
		"longitude": -80.4110895,
		"track_config_length": 1.5,
		"corners_per_lap": 4,
		"category": "oval",
		"track_type_text": "Intermediate Oval"
	},
	{
		"track_id": 363,
		"track_name": "Lånkebanen (Hell RX)",
		"location": "Hell, Trøndelag, Norway",
		"latitude": 63.405094,
		"longitude": 10.920655,
		"track_config_length": 0.633,
		"corners_per_lap": 6,
		"category": "road",
		"track_type_text": "Dirt Road Course"
	},
	{
		"track_id": 364,
		"track_name": "Texas Motor Speedway",
		"location": "Fort Worth, Texas, USA",
		"latitude": 33.0373257,
		"longitude": -97.2843123,
		"track_config_length": 0.24,
		"corners_per_lap": 2,
		"category": "oval",
		"track_type_text": "Short Oval"
	},
	{
		"track_id": 365,
		"track_name": "Bristol Motor Speedway",
		"location": "Bristol, Tennessee, USA",
		"latitude": 36.515694,
		"longitude": -82.2591607,
		"track_config_length": 0.533,
		"corners_per_lap": 4,
		"category": "oval",
		"track_type_text": "Short Oval"
	},
	{
		"track_id": 366,
		"track_name": "North Wilkesboro Speedway",
		"location": "North Wilkesboro, North Carolina, USA",
		"latitude": 36.143073,
		"longitude": -81.072278,
		"track_config_length": 0.625,
		"corners_per_lap": 4,
		"category": "oval",
		"track_type_text": "Short Oval"
	},
	{
		"track_id": 371,
		"track_name": "Kentucky Speedway",
		"location": "Sparta, Kentucky, USA",
		"latitude": 38.7117309,
		"longitude": -84.9128033,
		"track_config_length": 1.5,
		"corners_per_lap": 4,
		"category": "oval",
		"track_type_text": "Intermediate Oval"
	},
	{
		"track_id": 373,
		"track_name": "Weedsport Speedway",
		"location": "Weedsport, New York, USA",
		"latitude": 43.059556,
		"longitude": -76.546906,
		"track_config_length": 0.375,
		"corners_per_lap": 4,
		"category": "dirt_oval",
		"track_type_text": "Dirt Oval Course"
	},
	{
		"track_id": 374,
		"track_name": "Nashville Fairgrounds Speedway",
		"location": "Nashville, Tennessee, USA",
		"latitude": 36.130862,
		"longitude": -86.763039,
		"track_config_length": 0.596,
		"corners_per_lap": 4,
		"category": "oval",
		"track_type_text": "Short Oval"
	},
	{
		"track_id": 380,
		"track_name": "Nashville Fairgrounds Speedway",
		"location": "Nashville, Tennessee, USA",
		"latitude": 36.130862,
		"longitude": -86.763039,
		"track_config_length": 0.25,
		"corners_per_lap": 4,
		"category": "oval",
		"track_type_text": "Short Oval"
	},
	{
		"track_id": 381,
		"track_name": "Daytona International Speedway",
		"location": "Daytona Beach, Florida, USA",
		"latitude": 29.185169,
		"longitude": -81.072722,
		"track_config_length": 3.56,
		"corners_per_lap": 11,
		"category": "road",
		"track_type_text": "Road Course"
	},
	{
		"track_id": 382,
		"track_name": "Crandon International Raceway",
		"location": "Crandon, Wisconsin, USA",
		"latitude": 45.57413,
		"longitude": -88.93946,
		"track_config_length": 1,
		"corners_per_lap": 8,
		"category": "dirt_road",
		"track_type_text": "Dirt Road Course"
	},
	{
		"track_id": 383,
		"track_name": "Crandon International Raceway",
		"location": "Crandon, Wisconsin, USA",
		"latitude": 45.57413,
		"longitude": -88.93946,
		"track_config_length": 1,
		"corners_per_lap": 4,
		"category": "dirt_road",
		"track_type_text": "Dirt Road Course"
	},
	{
		"track_id": 384,
		"track_name": "iRacing Superspeedway",
		"location": "Chelmsford, Massachusetts, USA",
		"latitude": 42.601541,
		"longitude": -71.327313,
		"track_config_length": 3,
		"corners_per_lap": 4,
		"category": "oval",
		"track_type_text": "Superspeedway"
	},
	{
		"track_id": 385,
		"track_name": "Charlotte Motor Speedway",
		"location": "Concord, North Carolina, USA",
		"latitude": 35.3511641,
		"longitude": -80.6912655,
		"track_config_length": 0.83,
		"corners_per_lap": 7,
		"category": "dirt_road",
		"track_type_text": "Dirt Road Course"
	},
	{
		"track_id": 386,
		"track_name": "Circuit de Barcelona Catalunya",
		"location": "Montmeló, Catalonia, Spain",
		"latitude": 41.568749,
		"longitude": 2.257138,
		"track_config_length": 0.69,
		"corners_per_lap": 9,
		"category": "dirt_road",
		"track_type_text": "Dirt Road Course"
	},
	{
		"track_id": 387,
		"track_name": "Cedar Lake Speedway",
		"location": "New Richmond, Wisconsin, USA",
		"latitude": 45.190514,
		"longitude": -92.589252,
		"track_config_length": 0.375,
		"corners_per_lap": 4,
		"category": "dirt_oval",
		"track_type_text": "Dirt Oval Course"
	},
	{
		"track_id": 388,
		"track_name": "Irwindale Speedway",
		"location": "Irwindale, California, USA",
		"latitude": 34.1104491,
		"longitude": -117.9892554,
		"track_config_length": 0.33,
		"corners_per_lap": 4,
		"category": "road",
		"track_type_text": "Short Oval"
	},
	{
		"track_id": 390,
		"track_name": "Hockenheimring Baden-Württemberg",
		"location": "Hockenheim, Baden-Württemberg, Germany",
		"latitude": 49.330028,
		"longitude": 8.570892,
		"track_config_length": 2.84,
		"corners_per_lap": 16,
		"category": "road",
		"track_type_text": "Road Course"
	},
	{
		"track_id": 391,
		"track_name": "Hockenheimring Baden-Württemberg",
		"location": "Hockenheim, Baden-Württemberg, Germany",
		"latitude": 49.330028,
		"longitude": 8.570892,
		"track_config_length": 2.29,
		"corners_per_lap": 15,
		"category": "road",
		"track_type_text": "Road Course"
	},
	{
		"track_id": 392,
		"track_name": "Hockenheimring Baden-Württemberg",
		"location": "Hockenheim, Baden-Württemberg, Germany",
		"latitude": 49.330028,
		"longitude": 8.570892,
		"track_config_length": 2.29,
		"corners_per_lap": 16,
		"category": "road",
		"track_type_text": "Road Course"
	},
	{
		"track_id": 393,
		"track_name": "Hockenheimring Baden-Württemberg",
		"location": "Hockenheim, Baden-Württemberg, Germany",
		"latitude": 49.330028,
		"longitude": 8.570892,
		"track_config_length": 1.64,
		"corners_per_lap": 13,
		"category": "road",
		"track_type_text": "Road Course"
	},
	{
		"track_id": 394,
		"track_name": "Hockenheimring Baden-Württemberg",
		"location": "Hockenheim, Baden-Württemberg, Germany",
		"latitude": 49.330028,
		"longitude": 8.570892,
		"track_config_length": 1.62,
		"corners_per_lap": 14,
		"category": "road",
		"track_type_text": "Road Course"
	},
	{
		"track_id": 395,
		"track_name": "Hockenheimring Baden-Württemberg",
		"location": "Hockenheim, Baden-Württemberg, Germany",
		"latitude": 49.330028,
		"longitude": 8.570892,
		"track_config_length": 2.72,
		"corners_per_lap": 12,
		"category": "road",
		"track_type_text": "Road Course"
	},
	{
		"track_id": 396,
		"track_name": "Bark River International Raceway",
		"location": "Bark River, Michigan, USA",
		"latitude": 45.693396,
		"longitude": -87.30658,
		"track_config_length": 1.5,
		"corners_per_lap": 11,
		"category": "dirt_road",
		"track_type_text": "Dirt Road Course"
	},
	{
		"track_id": 397,
		"track_name": "Sonoma Raceway",
		"location": "Sonoma, California, USA",
		"latitude": 38.1616,
		"longitude": -122.4548,
		"track_config_length": 2.22,
		"corners_per_lap": 12,
		"category": "road",
		"track_type_text": "Road Course"
	},
	{
		"track_id": 398,
		"track_name": "Mount Washington Hillclimb",
		"location": "Jackson, New Hampshire, USA",
		"latitude": 44.289474,
		"longitude": -71.225102,
		"track_config_length": 7.6,
		"corners_per_lap": 138,
		"category": "road",
		"track_type_text": "Dirt Road Course"
	},
	{
		"track_id": 399,
		"track_name": "Mount Washington Hillclimb",
		"location": "Jackson, New Hampshire, USA",
		"latitude": 44.289474,
		"longitude": -71.225102,
		"track_config_length": 7.4,
		"corners_per_lap": 138,
		"category": "road",
		"track_type_text": "Dirt Road Course"
	},
	{
		"track_id": 400,
		"track_name": "Nashville Superspeedway",
		"location": "Lebanon, Tennessee, USA",
		"latitude": 36.046652,
		"longitude": -86.412149,
		"track_config_length": 1.333,
		"corners_per_lap": 4,
		"category": "oval",
		"track_type_text": "Intermediate Oval"
	},
	{
		"track_id": 403,
		"track_name": "Red Bull Ring",
		"location": "Spielberg, Styria, Austria",
		"latitude": 47.2203417,
		"longitude": 14.7654865,
		"track_config_length": 2.683,
		"corners_per_lap": 9,
		"category": "road",
		"track_type_text": "Road Course"
	},
	{
		"track_id": 404,
		"track_name": "Red Bull Ring",
		"location": "Spielberg, Styria, Austria",
		"latitude": 47.2203417,
		"longitude": 14.7654865,
		"track_config_length": 1.454,
		"corners_per_lap": 6,
		"category": "road",
		"track_type_text": "Road Course"
	},
	{
		"track_id": 405,
		"track_name": "Chicago Street Course",
		"location": "Chicago, Illinois, USA",
		"latitude": 41.8733468,
		"longitude": -87.620581,
		"track_config_length": 2.14,
		"corners_per_lap": 12,
		"category": "road",
		"track_type_text": "Road Course"
	},
	{
		"track_id": 407,
		"track_name": "Red Bull Ring",
		"location": "Spielberg, Styria, Austria",
		"latitude": 47.2203417,
		"longitude": 14.7654865,
		"track_config_length": 1.14,
		"corners_per_lap": 5,
		"category": "road",
		"track_type_text": "Road Course"
	},
	{
		"track_id": 413,
		"track_name": "Hungaroring",
		"location": "Mogyoród, Pest, Hungary",
		"latitude": 47.58186,
		"longitude": 19.25057,
		"track_config_length": 2.722,
		"corners_per_lap": 14,
		"category": "road",
		"track_type_text": "Road Course"
	},
	{
		"track_id": 414,
		"track_name": "Hickory Motor Speedway",
		"location": "Hickory, North Carolina, USA",
		"latitude": 35.69582,
		"longitude": -81.26916,
		"track_config_length": 0.363,
		"corners_per_lap": 4,
		"category": "oval",
		"track_type_text": "Short Oval"
	},
	{
		"track_id": 418,
		"track_name": "Phoenix Raceway",
		"location": "Avondale, Arizona, USA",
		"latitude": 33.37487,
		"longitude": -112.313415,
		"track_config_length": 1,
		"corners_per_lap": 4,
		"category": "oval",
		"track_type_text": "Mile Oval"
	},
	{
		"track_id": 419,
		"track_name": "Phoenix Raceway",
		"location": "Avondale, Arizona, USA",
		"latitude": 33.37487,
		"longitude": -112.313415,
		"track_config_length": 1,
		"corners_per_lap": 4,
		"category": "oval",
		"track_type_text": "Mile Oval"
	},
	{
		"track_id": 423,
		"track_name": "Knockhill Racing Circuit",
		"location": "Dunfermline, Fife, Scotland",
		"latitude": 56.131522,
		"longitude": -3.509043,
		"track_config_length": 1.26,
		"corners_per_lap": 9,
		"category": "road",
		"track_type_text": "Road Course"
	},
	{
		"track_id": 424,
		"track_name": "Knockhill Racing Circuit",
		"location": "Dunfermline, Fife, Scotland",
		"latitude": 56.131522,
		"longitude": -3.509043,
		"track_config_length": 1.26,
		"corners_per_lap": 9,
		"category": "road",
		"track_type_text": "Road Course"
	},
	{
		"track_id": 425,
		"track_name": "Knockhill Racing Circuit",
		"location": "Dunfermline, Fife, Scotland",
		"latitude": 56.131522,
		"longitude": -3.509043,
		"track_config_length": 1.12,
		"corners_per_lap": 10,
		"category": "road",
		"track_type_text": "Road Course"
	},
	{
		"track_id": 426,
		"track_name": "Knockhill Racing Circuit",
		"location": "Dunfermline, Fife, Scotland",
		"latitude": 56.131522,
		"longitude": -3.509043,
		"track_config_length": 1.12,
		"corners_per_lap": 10,
		"category": "road",
		"track_type_text": "Road Course"
	},
	{
		"track_id": 427,
		"track_name": "Knockhill Racing Circuit",
		"location": "Dunfermline, Fife, Scotland",
		"latitude": 56.131522,
		"longitude": -3.509043,
		"track_config_length": 0.86,
		"corners_per_lap": 6,
		"category": "dirt_road",
		"track_type_text": "Dirt Road Course"
	},
	{
		"track_id": 428,
		"track_name": "Hockenheimring Baden-Württemberg",
		"location": "Hockenheim, Baden-Württemberg, Germany",
		"latitude": 49.330028,
		"longitude": 8.570892,
		"track_config_length": 1.05,
		"corners_per_lap": 10,
		"category": "road",
		"track_type_text": "Road Course"
	},
	{
		"track_id": 429,
		"track_name": "Hockenheimring Baden-Württemberg",
		"location": "Hockenheim, Baden-Württemberg, Germany",
		"latitude": 49.330028,
		"longitude": 8.570892,
		"track_config_length": 0.91,
		"corners_per_lap": 8,
		"category": "road",
		"track_type_text": "Road Course"
	},
	{
		"track_id": 430,
		"track_name": "Hockenheimring Baden-Württemberg",
		"location": "Hockenheim, Baden-Württemberg, Germany",
		"latitude": 49.330028,
		"longitude": 8.570892,
		"track_config_length": 0.61,
		"corners_per_lap": 7,
		"category": "road",
		"track_type_text": "Road Course"
	},
	{
		"track_id": 431,
		"track_name": "Hockenheimring Baden-Württemberg",
		"location": "Hockenheim, Baden-Württemberg, Germany",
		"latitude": 49.330028,
		"longitude": 8.570892,
		"track_config_length": 1.63,
		"corners_per_lap": 21,
		"category": "road",
		"track_type_text": "Road Course"
	},
	{
		"track_id": 432,
		"track_name": "Watkins Glen International",
		"location": "Watkins Glen, New York, USA",
		"latitude": 42.3382811,
		"longitude": -76.9285517,
		"track_config_length": 2.42,
		"corners_per_lap": 7,
		"category": "road",
		"track_type_text": "Road Course"
	},
	{
		"track_id": 433,
		"track_name": "Watkins Glen International",
		"location": "Watkins Glen, New York, USA",
		"latitude": 42.3382811,
		"longitude": -76.9285517,
		"track_config_length": 2.45,
		"corners_per_lap": 8,
		"category": "road",
		"track_type_text": "Road Course"
	},
	{
		"track_id": 434,
		"track_name": "Watkins Glen International",
		"location": "Watkins Glen, New York, USA",
		"latitude": 42.3382811,
		"longitude": -76.9285517,
		"track_config_length": 3.45,
		"corners_per_lap": 12,
		"category": "road",
		"track_type_text": "Road Course"
	},
	{
		"track_id": 435,
		"track_name": "Watkins Glen International",
		"location": "Watkins Glen, New York, USA",
		"latitude": 42.3382811,
		"longitude": -76.9285517,
		"track_config_length": 3.377,
		"corners_per_lap": 11,
		"category": "road",
		"track_type_text": "Road Course"
	},
	{
		"track_id": 436,
		"track_name": "Knockhill Racing Circuit",
		"location": "Dunfermline, Fife, Scotland",
		"latitude": 56.131522,
		"longitude": -3.509043,
		"track_config_length": 0.23,
		"corners_per_lap": 3,
		"category": "oval",
		"track_type_text": "Short Oval"
	},
	{
		"track_id": 437,
		"track_name": "LA Coliseum Raceway",
		"location": "Los Angeles, California, USA",
		"latitude": 34.014257,
		"longitude": -118.287875,
		"track_config_length": 0.25,
		"corners_per_lap": 4,
		"category": "oval",
		"track_type_text": "Short Oval"
	},
	{
		"track_id": 438,
		"track_name": "Federated Auto Parts Raceway at I-55",
		"location": "Pevely, Missouri, USA",
		"latitude": 38.26962792575186,
		"longitude": -90.40161239958172,
		"track_config_length": 0.33,
		"corners_per_lap": 4,
		"category": "dirt_oval",
		"track_type_text": "Dirt Oval Course"
	},
	{
		"track_id": 439,
		"track_name": "Winton Motor Raceway",
		"location": "Winton, Victoria, Australia",
		"latitude": -36.51993,
		"longitude": 146.08764,
		"track_config_length": 1.86,
		"corners_per_lap": 12,
		"category": "road",
		"track_type_text": "Road Course"
	},
	{
		"track_id": 440,
		"track_name": "Winton Motor Raceway",
		"location": "Winton, Victoria, Australia",
		"latitude": -36.51993,
		"longitude": 146.08764,
		"track_config_length": 1.26,
		"corners_per_lap": 10,
		"category": "road",
		"track_type_text": "Road Course"
	},
	{
		"track_id": 442,
		"track_name": "Bristol Motor Speedway",
		"location": "Bristol, Tennessee, USA",
		"latitude": 36.515694,
		"longitude": -82.2591607,
		"track_config_length": 0.533,
		"corners_per_lap": 4,
		"category": "dirt_oval",
		"track_type_text": "Dirt Oval Course"
	},
	{
		"track_id": 443,
		"track_name": "Sandown International Motor Raceway",
		"location": "Melbourne, Victoria, Australia",
		"latitude": -37.9508,
		"longitude": 145.1672,
		"track_config_length": 1.928,
		"corners_per_lap": 13,
		"category": "road",
		"track_type_text": "Road Course"
	},
	{
		"track_id": 444,
		"track_name": "Fuji International Speedway",
		"location": "Oyama, Shizuoka Prefecture, Japan",
		"latitude": 35.3717,
		"longitude": 138.9267,
		"track_config_length": 2.833453,
		"corners_per_lap": 16,
		"category": "road",
		"track_type_text": "Road Course"
	},
	{
		"track_id": 445,
		"track_name": "Fuji International Speedway",
		"location": "Oyama, Shizuoka Prefecture, Japan",
		"latitude": 35.3717,
		"longitude": 138.9267,
		"track_config_length": 2.789957,
		"corners_per_lap": 16,
		"category": "road",
		"track_type_text": "Road Course"
	},
	{
		"track_id": 446,
		"track_name": "Port Royal Speedway",
		"location": "Port Royal, Pennsylvania, USA",
		"latitude": 40.5358,
		"longitude": -77.3895,
		"track_config_length": 0.5,
		"corners_per_lap": 4,
		"category": "dirt_oval",
		"track_type_text": "Dirt Oval Course"
	},
	{
		"track_id": 447,
		"track_name": "EchoPark Speedway (Atlanta)",
		"location": "Hampton, Georgia, USA",
		"latitude": 33.3859794,
		"longitude": -84.3184714,
		"track_config_length": 1.54,
		"corners_per_lap": 4,
		"category": "oval",
		"track_type_text": "Superspeedway"
	},
	{
		"track_id": 448,
		"track_name": "Indianapolis Motor Speedway",
		"location": "Speedway, Indiana, USA",
		"latitude": 39.7953542,
		"longitude": -86.2374946,
		"track_config_length": 2.439,
		"corners_per_lap": 14,
		"category": "road",
		"track_type_text": "Road Course"
	},
	{
		"track_id": 449,
		"track_name": "Motorsport Arena Oschersleben",
		"location": "Oschersleben, Saxony-Anhalt, Germany",
		"latitude": 52.0266,
		"longitude": 11.2783,
		"track_config_length": 2.296,
		"corners_per_lap": 14,
		"category": "road",
		"track_type_text": "Road Course"
	},
	{
		"track_id": 451,
		"track_name": "Rudskogen Motorsenter",
		"location": "Rakkestad, Østfold, Norway",
		"latitude": 59.3666,
		"longitude": 11.2616,
		"track_config_length": 2.022,
		"corners_per_lap": 14,
		"category": "road",
		"track_type_text": "Road Course"
	},
	{
		"track_id": 452,
		"track_name": "Lucas Oil Speedway",
		"location": "Wheatland, Missouri, USA",
		"latitude": 37.9404,
		"longitude": -93.3977,
		"track_config_length": 0.375,
		"corners_per_lap": 4,
		"category": "dirt_oval",
		"track_type_text": "Dirt Oval Course"
	},
	{
		"track_id": 453,
		"track_name": "Indianapolis Motor Speedway",
		"location": "Speedway, Indiana, USA",
		"latitude": 39.4754,
		"longitude": -86.1358,
		"track_config_length": 2.5,
		"corners_per_lap": 4,
		"category": "oval",
		"track_type_text": "Long Oval"
	},
	{
		"track_id": 454,
		"track_name": "Motorsport Arena Oschersleben",
		"location": "Oschersleben, Saxony-Anhalt, Germany",
		"latitude": 52.0266,
		"longitude": 11.2783,
		"track_config_length": 2.279,
		"corners_per_lap": 14,
		"category": "road",
		"track_type_text": "Road Course"
	},
	{
		"track_id": 455,
		"track_name": "Motorsport Arena Oschersleben",
		"location": "Oschersleben, Saxony-Anhalt, Germany",
		"latitude": 52.0266,
		"longitude": 11.2783,
		"track_config_length": 1.486,
		"corners_per_lap": 8,
		"category": "road",
		"track_type_text": "Road Course"
	},
	{
		"track_id": 456,
		"track_name": "Motorsport Arena Oschersleben",
		"location": "Oschersleben, Saxony-Anhalt, Germany",
		"latitude": 52.0266,
		"longitude": 11.2783,
		"track_config_length": 0.665,
		"corners_per_lap": 6,
		"category": "road",
		"track_type_text": "Road Course"
	},
	{
		"track_id": 462,
		"track_name": "Lincoln Speedway",
		"location": "Abbottstown, Pennsylvania, USA",
		"latitude": 39.869954,
		"longitude": -76.993998,
		"track_config_length": 0.375,
		"corners_per_lap": 4,
		"category": "dirt_oval",
		"track_type_text": "Dirt Oval Course"
	},
	{
		"track_id": 463,
		"track_name": "Circuit de Nevers Magny-Cours",
		"location": "Magny-Cours, Bourgogne-Franche-Comté, France",
		"latitude": 46.8634579,
		"longitude": 3.163344,
		"track_config_length": 2.741,
		"corners_per_lap": 17,
		"category": "road",
		"track_type_text": "Road Course"
	},
	{
		"track_id": 465,
		"track_name": "Virginia International Raceway",
		"location": "Alton, Virginia, USA",
		"latitude": 36.560008,
		"longitude": -79.2048,
		"track_config_length": 3.27,
		"corners_per_lap": 20,
		"category": "road",
		"track_type_text": "Road Course"
	},
	{
		"track_id": 466,
		"track_name": "Virginia International Raceway",
		"location": "Alton, Virginia, USA",
		"latitude": 36.560008,
		"longitude": -79.2048,
		"track_config_length": 4.07,
		"corners_per_lap": 26,
		"category": "road",
		"track_type_text": "Road Course"
	},
	{
		"track_id": 467,
		"track_name": "Virginia International Raceway",
		"location": "Alton, Virginia, USA",
		"latitude": 36.560008,
		"longitude": -79.2048,
		"track_config_length": 2.25,
		"corners_per_lap": 20,
		"category": "road",
		"track_type_text": "Road Course"
	},